{
"type": "FeatureCollection",
"name": "gares-tgv",
"crs": { "type": "name", "properties": { "name": "urn:ogc:def:crs:OGC:1.3:CRS84" } },
"features": [
{ "type": "Feature", "properties": { "Nom_Gare": "Aix-en-Provence TGV", "INSEE_REG": "84", "NOM_REG": "Auvergne-Rhône-Alpes", "INSEE_DEP": "1", "NOM_DEP": "Ain", "Latitude": 46.097, "Longitude": 4.847 }, "geometry": { "type": "Point", "coordinates": [ 4.847, 46.097 ] } },
{ "type": "Feature", "properties": { "Nom_Gare": "Bellegarde", "INSEE_REG": "84", "NOM_REG": "Auvergne-Rhône-Alpes", "INSEE_DEP": "1", "NOM_DEP": "Ain", "Latitude": 46.114, "Longitude": 5.824 }, "geometry": { "type": "Point", "coordinates": [ 5.824, 46.114 ] } },
{ "type": "Feature", "properties": { "Nom_Gare": "Bourg-en-Bresse", "INSEE_REG": "84", "NOM_REG": "Auvergne-Rhône-Alpes", "INSEE_DEP": "1", "NOM_DEP": "Ain", "Latitude": 46.196, "Longitude": 5.275 }, "geometry": { "type": "Point", "coordinates": [ 5.275, 46.196 ] } },
{ "type": "Feature", "properties": { "Nom_Gare": "Cluses", "INSEE_REG": "84", "NOM_REG": "Auvergne-Rhône-Alpes", "INSEE_DEP": "1", "NOM_DEP": "Ain", "Latitude": 46.171, "Longitude": 5.577 }, "geometry": { "type": "Point", "coordinates": [ 5.577, 46.171 ] } },
{ "type": "Feature", "properties": { "Nom_Gare": "Nurieux", "INSEE_REG": "84", "NOM_REG": "Auvergne-Rhône-Alpes", "INSEE_DEP": "1", "NOM_DEP": "Ain", "Latitude": 46.181, "Longitude": 5.521 }, "geometry": { "type": "Point", "coordinates": [ 5.521, 46.181 ] } },
{ "type": "Feature", "properties": { "Nom_Gare": "Antibes", "INSEE_REG": "93", "NOM_REG": "Provence-Alpes-Côte d'Azur", "INSEE_DEP": "6", "NOM_DEP": "Alpes-Maritimes", "Latitude": 43.584, "Longitude": 7.108 }, "geometry": { "type": "Point", "coordinates": [ 7.108, 43.584 ] } },
{ "type": "Feature", "properties": { "Nom_Gare": "Cannes", "INSEE_REG": "93", "NOM_REG": "Provence-Alpes-Côte d'Azur", "INSEE_DEP": "6", "NOM_DEP": "Alpes-Maritimes", "Latitude": 43.653, "Longitude": 7.146 }, "geometry": { "type": "Point", "coordinates": [ 7.146, 43.653 ] } },
{ "type": "Feature", "properties": { "Nom_Gare": "Menton", "INSEE_REG": "93", "NOM_REG": "Provence-Alpes-Côte d'Azur", "INSEE_DEP": "6", "NOM_DEP": "Alpes-Maritimes", "Latitude": 43.774, "Longitude": 7.489 }, "geometry": { "type": "Point", "coordinates": [ 7.489, 43.774 ] } },
{ "type": "Feature", "properties": { "Nom_Gare": "Nice-Ville", "INSEE_REG": "93", "NOM_REG": "Provence-Alpes-Côte d'Azur", "INSEE_DEP": "6", "NOM_DEP": "Alpes-Maritimes", "Latitude": 43.697, "Longitude": 7.272 }, "geometry": { "type": "Point", "coordinates": [ 7.272, 43.697 ] } },
{ "type": "Feature", "properties": { "Nom_Gare": "Charleville-Mézières", "INSEE_REG": "44", "NOM_REG": "Grand Est", "INSEE_DEP": "8", "NOM_DEP": "Ardennes", "Latitude": 49.771, "Longitude": 4.72 }, "geometry": { "type": "Point", "coordinates": [ 4.72, 49.771 ] } },
{ "type": "Feature", "properties": { "Nom_Gare": "Rethel", "INSEE_REG": "44", "NOM_REG": "Grand Est", "INSEE_DEP": "8", "NOM_DEP": "Ardennes", "Latitude": 49.5, "Longitude": 4.402 }, "geometry": { "type": "Point", "coordinates": [ 4.402, 49.5 ] } },
{ "type": "Feature", "properties": { "Nom_Gare": "Sedan", "INSEE_REG": "44", "NOM_REG": "Grand Est", "INSEE_DEP": "8", "NOM_DEP": "Ardennes", "Latitude": 49.705, "Longitude": 4.943 }, "geometry": { "type": "Point", "coordinates": [ 4.943, 49.705 ] } },
{ "type": "Feature", "properties": { "Nom_Gare": "Dijon-Ville", "INSEE_REG": "44", "NOM_REG": "Grand Est", "INSEE_DEP": "10", "NOM_DEP": "Aube", "Latitude": 48.119, "Longitude": 4.789 }, "geometry": { "type": "Point", "coordinates": [ 4.789, 48.119 ] } },
{ "type": "Feature", "properties": { "Nom_Gare": "Carcassonne", "INSEE_REG": "76", "NOM_REG": "Occitanie", "INSEE_DEP": "11", "NOM_DEP": "Aude", "Latitude": 43.179, "Longitude": 2.405 }, "geometry": { "type": "Point", "coordinates": [ 2.405, 43.179 ] } },
{ "type": "Feature", "properties": { "Nom_Gare": "Narbonne", "INSEE_REG": "76", "NOM_REG": "Occitanie", "INSEE_DEP": "11", "NOM_DEP": "Aude", "Latitude": 43.182, "Longitude": 3.026 }, "geometry": { "type": "Point", "coordinates": [ 3.026, 43.182 ] } },
{ "type": "Feature", "properties": { "Nom_Gare": "Arles", "INSEE_REG": "93", "NOM_REG": "Provence-Alpes-Côte d'Azur", "INSEE_DEP": "13", "NOM_DEP": "Bouches-du-Rhône", "Latitude": 43.641, "Longitude": 5.071 }, "geometry": { "type": "Point", "coordinates": [ 5.071, 43.641 ] } },
{ "type": "Feature", "properties": { "Nom_Gare": "Avignon TGV", "INSEE_REG": "93", "NOM_REG": "Provence-Alpes-Côte d'Azur", "INSEE_DEP": "13", "NOM_DEP": "Bouches-du-Rhône", "Latitude": 43.657, "Longitude": 5.095 }, "geometry": { "type": "Point", "coordinates": [ 5.095, 43.657 ] } },
{ "type": "Feature", "properties": { "Nom_Gare": "Marseille-Saint-Charles", "INSEE_REG": "93", "NOM_REG": "Provence-Alpes-Côte d'Azur", "INSEE_DEP": "13", "NOM_DEP": "Bouches-du-Rhône", "Latitude": 43.255, "Longitude": 5.432 }, "geometry": { "type": "Point", "coordinates": [ 5.432, 43.255 ] } },
{ "type": "Feature", "properties": { "Nom_Gare": "Miramas", "INSEE_REG": "93", "NOM_REG": "Provence-Alpes-Côte d'Azur", "INSEE_DEP": "13", "NOM_DEP": "Bouches-du-Rhône", "Latitude": 43.643, "Longitude": 5.021 }, "geometry": { "type": "Point", "coordinates": [ 5.021, 43.643 ] } },
{ "type": "Feature", "properties": { "Nom_Gare": "Angoulème", "INSEE_REG": "75", "NOM_REG": "Nouvelle-Aquitaine", "INSEE_DEP": "16", "NOM_DEP": "Charente", "Latitude": 45.655, "Longitude": 0.151 }, "geometry": { "type": "Point", "coordinates": [ 0.151, 45.655 ] } },
{ "type": "Feature", "properties": { "Nom_Gare": "Champagne-Ardenne TGV", "INSEE_REG": "75", "NOM_REG": "Nouvelle-Aquitaine", "INSEE_DEP": "16", "NOM_DEP": "Charente", "Latitude": 45.62, "Longitude": -0.222 }, "geometry": { "type": "Point", "coordinates": [ -0.222, 45.62 ] } },
{ "type": "Feature", "properties": { "Nom_Gare": "La Rochelle-Ville", "INSEE_REG": "75", "NOM_REG": "Nouvelle-Aquitaine", "INSEE_DEP": "17", "NOM_DEP": "Charente-Maritime", "Latitude": 46.158, "Longitude": -1.154 }, "geometry": { "type": "Point", "coordinates": [ -1.154, 46.158 ] } },
{ "type": "Feature", "properties": { "Nom_Gare": "Rouen-Rive-Droite", "INSEE_REG": "75", "NOM_REG": "Nouvelle-Aquitaine", "INSEE_DEP": "17", "NOM_DEP": "Charente-Maritime", "Latitude": 46.318, "Longitude": -0.973 }, "geometry": { "type": "Point", "coordinates": [ -0.973, 46.318 ] } },
{ "type": "Feature", "properties": { "Nom_Gare": "Surgères", "INSEE_REG": "75", "NOM_REG": "Nouvelle-Aquitaine", "INSEE_DEP": "17", "NOM_DEP": "Charente-Maritime", "Latitude": 46.114, "Longitude": -0.741 }, "geometry": { "type": "Point", "coordinates": [ -0.741, 46.114 ] } },
{ "type": "Feature", "properties": { "Nom_Gare": "Beaune", "INSEE_REG": "27", "NOM_REG": "Bourgogne-Franche-Comté", "INSEE_DEP": "21", "NOM_DEP": "Côte-d'Or", "Latitude": 47.104, "Longitude": 4.67 }, "geometry": { "type": "Point", "coordinates": [ 4.67, 47.104 ] } },
{ "type": "Feature", "properties": { "Nom_Gare": "Montbard", "INSEE_REG": "27", "NOM_REG": "Bourgogne-Franche-Comté", "INSEE_DEP": "21", "NOM_DEP": "Côte-d'Or", "Latitude": 47.837, "Longitude": 4.364 }, "geometry": { "type": "Point", "coordinates": [ 4.364, 47.837 ] } },
{ "type": "Feature", "properties": { "Nom_Gare": "Guingamp", "INSEE_REG": "53", "NOM_REG": "Bretagne", "INSEE_DEP": "22", "NOM_DEP": "Côtes-d'Armor", "Latitude": 48.563, "Longitude": -3.155 }, "geometry": { "type": "Point", "coordinates": [ -3.155, 48.563 ] } },
{ "type": "Feature", "properties": { "Nom_Gare": "Lamballe", "INSEE_REG": "53", "NOM_REG": "Bretagne", "INSEE_DEP": "22", "NOM_DEP": "Côtes-d'Armor", "Latitude": 48.439, "Longitude": -2.538 }, "geometry": { "type": "Point", "coordinates": [ -2.538, 48.439 ] } },
{ "type": "Feature", "properties": { "Nom_Gare": "Lannion", "INSEE_REG": "53", "NOM_REG": "Bretagne", "INSEE_DEP": "22", "NOM_DEP": "Côtes-d'Armor", "Latitude": 48.744, "Longitude": -3.472 }, "geometry": { "type": "Point", "coordinates": [ -3.472, 48.744 ] } },
{ "type": "Feature", "properties": { "Nom_Gare": "Mâcon-Ville", "INSEE_REG": "53", "NOM_REG": "Bretagne", "INSEE_DEP": "22", "NOM_DEP": "Côtes-d'Armor", "Latitude": 48.581, "Longitude": -2.197 }, "geometry": { "type": "Point", "coordinates": [ -2.197, 48.581 ] } },
{ "type": "Feature", "properties": { "Nom_Gare": "Saint-Brieuc", "INSEE_REG": "53", "NOM_REG": "Bretagne", "INSEE_DEP": "22", "NOM_DEP": "Côtes-d'Armor", "Latitude": 48.503, "Longitude": -2.763 }, "geometry": { "type": "Point", "coordinates": [ -2.763, 48.503 ] } },
{ "type": "Feature", "properties": { "Nom_Gare": "Besançon-Viotte", "INSEE_REG": "27", "NOM_REG": "Bourgogne-Franche-Comté", "INSEE_DEP": "25", "NOM_DEP": "Doubs", "Latitude": 47.248, "Longitude": 6.026 }, "geometry": { "type": "Point", "coordinates": [ 6.026, 47.248 ] } },
{ "type": "Feature", "properties": { "Nom_Gare": "Frasne", "INSEE_REG": "27", "NOM_REG": "Bourgogne-Franche-Comté", "INSEE_DEP": "25", "NOM_DEP": "Doubs", "Latitude": 46.856, "Longitude": 6.149 }, "geometry": { "type": "Point", "coordinates": [ 6.149, 46.856 ] } },
{ "type": "Feature", "properties": { "Nom_Gare": "Montélimar", "INSEE_REG": "84", "NOM_REG": "Auvergne-Rhône-Alpes", "INSEE_DEP": "26", "NOM_DEP": "Drôme", "Latitude": 44.546, "Longitude": 4.744 }, "geometry": { "type": "Point", "coordinates": [ 4.744, 44.546 ] } },
{ "type": "Feature", "properties": { "Nom_Gare": "Valence TGV", "INSEE_REG": "84", "NOM_REG": "Auvergne-Rhône-Alpes", "INSEE_DEP": "26", "NOM_DEP": "Drôme", "Latitude": 45.065, "Longitude": 4.891 }, "geometry": { "type": "Point", "coordinates": [ 4.891, 45.065 ] } },
{ "type": "Feature", "properties": { "Nom_Gare": "Valence-Ville", "INSEE_REG": "84", "NOM_REG": "Auvergne-Rhône-Alpes", "INSEE_DEP": "26", "NOM_DEP": "Drôme", "Latitude": 44.933, "Longitude": 4.891 }, "geometry": { "type": "Point", "coordinates": [ 4.891, 44.933 ] } },
{ "type": "Feature", "properties": { "Nom_Gare": "Brest", "INSEE_REG": "53", "NOM_REG": "Bretagne", "INSEE_DEP": "29", "NOM_DEP": "Finistère", "Latitude": 48.391, "Longitude": -4.502 }, "geometry": { "type": "Point", "coordinates": [ -4.502, 48.391 ] } },
{ "type": "Feature", "properties": { "Nom_Gare": "Landerneau", "INSEE_REG": "53", "NOM_REG": "Bretagne", "INSEE_DEP": "29", "NOM_DEP": "Finistère", "Latitude": 48.45, "Longitude": -4.253 }, "geometry": { "type": "Point", "coordinates": [ -4.253, 48.45 ] } },
{ "type": "Feature", "properties": { "Nom_Gare": "Quimper", "INSEE_REG": "53", "NOM_REG": "Bretagne", "INSEE_DEP": "29", "NOM_DEP": "Finistère", "Latitude": 48.014, "Longitude": -4.094 }, "geometry": { "type": "Point", "coordinates": [ -4.094, 48.014 ] } },
{ "type": "Feature", "properties": { "Nom_Gare": "Quimperlé", "INSEE_REG": "53", "NOM_REG": "Bretagne", "INSEE_DEP": "29", "NOM_DEP": "Finistère", "Latitude": 47.884, "Longitude": -3.548 }, "geometry": { "type": "Point", "coordinates": [ -3.548, 47.884 ] } },
{ "type": "Feature", "properties": { "Nom_Gare": "Rosporden", "INSEE_REG": "53", "NOM_REG": "Bretagne", "INSEE_DEP": "29", "NOM_DEP": "Finistère", "Latitude": 47.989, "Longitude": -3.791 }, "geometry": { "type": "Point", "coordinates": [ -3.791, 47.989 ] } },
{ "type": "Feature", "properties": { "Nom_Gare": "Morlaix", "INSEE_REG": "53", "NOM_REG": "Bretagne", "INSEE_DEP": "29", "NOM_DEP": "Finistère", "Latitude": 48.579, "Longitude": -3.833 }, "geometry": { "type": "Point", "coordinates": [ -3.833, 48.579 ] } },
{ "type": "Feature", "properties": { "Nom_Gare": "Nîmes", "INSEE_REG": "76", "NOM_REG": "Occitanie", "INSEE_DEP": "30", "NOM_DEP": "Gard", "Latitude": 43.832, "Longitude": 4.386 }, "geometry": { "type": "Point", "coordinates": [ 4.386, 43.832 ] } },
{ "type": "Feature", "properties": { "Nom_Gare": "Nîmes-Pont-du-Gard", "INSEE_REG": "76", "NOM_REG": "Occitanie", "INSEE_DEP": "30", "NOM_DEP": "Gard", "Latitude": 43.851, "Longitude": 4.37 }, "geometry": { "type": "Point", "coordinates": [ 4.37, 43.851 ] } },
{ "type": "Feature", "properties": { "Nom_Gare": "Meuse TGV", "INSEE_REG": "76", "NOM_REG": "Occitanie", "INSEE_DEP": "31", "NOM_DEP": "Haute-Garonne", "Latitude": 43.583, "Longitude": 1.484 }, "geometry": { "type": "Point", "coordinates": [ 1.484, 43.583 ] } },
{ "type": "Feature", "properties": { "Nom_Gare": "Toulouse-Matabiau", "INSEE_REG": "76", "NOM_REG": "Occitanie", "INSEE_DEP": "31", "NOM_DEP": "Haute-Garonne", "Latitude": 43.61, "Longitude": 1.447 }, "geometry": { "type": "Point", "coordinates": [ 1.447, 43.61 ] } },
{ "type": "Feature", "properties": { "Nom_Gare": "Arcachon", "INSEE_REG": "75", "NOM_REG": "Nouvelle-Aquitaine", "INSEE_DEP": "33", "NOM_DEP": "Gironde", "Latitude": 44.662, "Longitude": -1.17 }, "geometry": { "type": "Point", "coordinates": [ -1.17, 44.662 ] } },
{ "type": "Feature", "properties": { "Nom_Gare": "Bordeaux-Saint-Jean", "INSEE_REG": "75", "NOM_REG": "Nouvelle-Aquitaine", "INSEE_DEP": "33", "NOM_DEP": "Gironde", "Latitude": 44.838, "Longitude": -0.57 }, "geometry": { "type": "Point", "coordinates": [ -0.57, 44.838 ] } },
{ "type": "Feature", "properties": { "Nom_Gare": "Facture-Biganos", "INSEE_REG": "75", "NOM_REG": "Nouvelle-Aquitaine", "INSEE_DEP": "33", "NOM_DEP": "Gironde", "Latitude": 44.65, "Longitude": -0.956 }, "geometry": { "type": "Point", "coordinates": [ -0.956, 44.65 ] } },
{ "type": "Feature", "properties": { "Nom_Gare": "Libourne", "INSEE_REG": "75", "NOM_REG": "Nouvelle-Aquitaine", "INSEE_DEP": "33", "NOM_DEP": "Gironde", "Latitude": 44.896, "Longitude": -0.24 }, "geometry": { "type": "Point", "coordinates": [ -0.24, 44.896 ] } },
{ "type": "Feature", "properties": { "Nom_Gare": "La Teste", "INSEE_REG": "75", "NOM_REG": "Nouvelle-Aquitaine", "INSEE_DEP": "33", "NOM_DEP": "Gironde", "Latitude": 44.633, "Longitude": -1.133 }, "geometry": { "type": "Point", "coordinates": [ -1.133, 44.633 ] } },
{ "type": "Feature", "properties": { "Nom_Gare": "Agde", "INSEE_REG": "76", "NOM_REG": "Occitanie", "INSEE_DEP": "34", "NOM_DEP": "Hérault", "Latitude": 43.318, "Longitude": 3.483 }, "geometry": { "type": "Point", "coordinates": [ 3.483, 43.318 ] } },
{ "type": "Feature", "properties": { "Nom_Gare": "Béziers", "INSEE_REG": "76", "NOM_REG": "Occitanie", "INSEE_DEP": "34", "NOM_DEP": "Hérault", "Latitude": 43.42, "Longitude": 3.236 }, "geometry": { "type": "Point", "coordinates": [ 3.236, 43.42 ] } },
{ "type": "Feature", "properties": { "Nom_Gare": "Montpellier-Saint-Roch", "INSEE_REG": "76", "NOM_REG": "Occitanie", "INSEE_DEP": "34", "NOM_DEP": "Hérault", "Latitude": 43.603, "Longitude": 3.89 }, "geometry": { "type": "Point", "coordinates": [ 3.89, 43.603 ] } },
{ "type": "Feature", "properties": { "Nom_Gare": "Montpellier-Sud-de-France", "INSEE_REG": "76", "NOM_REG": "Occitanie", "INSEE_DEP": "34", "NOM_DEP": "Hérault", "Latitude": 43.595, "Longitude": 3.924 }, "geometry": { "type": "Point", "coordinates": [ 3.924, 43.595 ] } },
{ "type": "Feature", "properties": { "Nom_Gare": "Sète", "INSEE_REG": "76", "NOM_REG": "Occitanie", "INSEE_DEP": "34", "NOM_DEP": "Hérault", "Latitude": 43.409, "Longitude": 3.698 }, "geometry": { "type": "Point", "coordinates": [ 3.698, 43.409 ] } },
{ "type": "Feature", "properties": { "Nom_Gare": "TGV Haute-Picardie", "INSEE_REG": "76", "NOM_REG": "Occitanie", "INSEE_DEP": "34", "NOM_DEP": "Hérault", "Latitude": 43.394, "Longitude": 3.68 }, "geometry": { "type": "Point", "coordinates": [ 3.68, 43.394 ] } },
{ "type": "Feature", "properties": { "Nom_Gare": "Dol-de-Bretagne", "INSEE_REG": "53", "NOM_REG": "Bretagne", "INSEE_DEP": "35", "NOM_DEP": "Ille-et-Vilaine", "Latitude": 48.551, "Longitude": -1.738 }, "geometry": { "type": "Point", "coordinates": [ -1.738, 48.551 ] } },
{ "type": "Feature", "properties": { "Nom_Gare": "Plouaret-Trégor", "INSEE_REG": "53", "NOM_REG": "Bretagne", "INSEE_DEP": "35", "NOM_DEP": "Ille-et-Vilaine", "Latitude": 48.035, "Longitude": -1.704 }, "geometry": { "type": "Point", "coordinates": [ -1.704, 48.035 ] } },
{ "type": "Feature", "properties": { "Nom_Gare": "Redon", "INSEE_REG": "53", "NOM_REG": "Bretagne", "INSEE_DEP": "35", "NOM_DEP": "Ille-et-Vilaine", "Latitude": 47.652, "Longitude": -2.083 }, "geometry": { "type": "Point", "coordinates": [ -2.083, 47.652 ] } },
{ "type": "Feature", "properties": { "Nom_Gare": "Rennes", "INSEE_REG": "53", "NOM_REG": "Bretagne", "INSEE_DEP": "35", "NOM_DEP": "Ille-et-Vilaine", "Latitude": 48.11, "Longitude": -1.684 }, "geometry": { "type": "Point", "coordinates": [ -1.684, 48.11 ] } },
{ "type": "Feature", "properties": { "Nom_Gare": "Saint-Malo", "INSEE_REG": "53", "NOM_REG": "Bretagne", "INSEE_DEP": "35", "NOM_DEP": "Ille-et-Vilaine", "Latitude": 48.657, "Longitude": -1.974 }, "geometry": { "type": "Point", "coordinates": [ -1.974, 48.657 ] } },
{ "type": "Feature", "properties": { "Nom_Gare": "Vitré", "INSEE_REG": "53", "NOM_REG": "Bretagne", "INSEE_DEP": "35", "NOM_DEP": "Ille-et-Vilaine", "Latitude": 48.131, "Longitude": -1.218 }, "geometry": { "type": "Point", "coordinates": [ -1.218, 48.131 ] } },
{ "type": "Feature", "properties": { "Nom_Gare": "Lorraine TGV", "INSEE_REG": "24", "NOM_REG": "Centre-Val de Loire", "INSEE_DEP": "37", "NOM_DEP": "Indre-et-Loire", "Latitude": 47.381, "Longitude": 0.71 }, "geometry": { "type": "Point", "coordinates": [ 0.71, 47.381 ] } },
{ "type": "Feature", "properties": { "Nom_Gare": "Saint-Pierre-des-Corps", "INSEE_REG": "24", "NOM_REG": "Centre-Val de Loire", "INSEE_DEP": "37", "NOM_DEP": "Indre-et-Loire", "Latitude": 47.386, "Longitude": 0.761 }, "geometry": { "type": "Point", "coordinates": [ 0.761, 47.386 ] } },
{ "type": "Feature", "properties": { "Nom_Gare": "Tours", "INSEE_REG": "24", "NOM_REG": "Centre-Val de Loire", "INSEE_DEP": "37", "NOM_DEP": "Indre-et-Loire", "Latitude": 47.402, "Longitude": 0.696 }, "geometry": { "type": "Point", "coordinates": [ 0.696, 47.402 ] } },
{ "type": "Feature", "properties": { "Nom_Gare": "Grenoble", "INSEE_REG": "84", "NOM_REG": "Auvergne-Rhône-Alpes", "INSEE_DEP": "38", "NOM_DEP": "Isère", "Latitude": 45.177, "Longitude": 5.741 }, "geometry": { "type": "Point", "coordinates": [ 5.741, 45.177 ] } },
{ "type": "Feature", "properties": { "Nom_Gare": "Mouchard", "INSEE_REG": "27", "NOM_REG": "Bourgogne-Franche-Comté", "INSEE_DEP": "39", "NOM_DEP": "Jura", "Latitude": 46.978, "Longitude": 5.792 }, "geometry": { "type": "Point", "coordinates": [ 5.792, 46.978 ] } },
{ "type": "Feature", "properties": { "Nom_Gare": "Dax", "INSEE_REG": "75", "NOM_REG": "Nouvelle-Aquitaine", "INSEE_DEP": "40", "NOM_DEP": "Landes", "Latitude": 43.709, "Longitude": -1.068 }, "geometry": { "type": "Point", "coordinates": [ -1.068, 43.709 ] } },
{ "type": "Feature", "properties": { "Nom_Gare": "Vendôme - Villiers-sur-Loir", "INSEE_REG": "24", "NOM_REG": "Centre-Val de Loire", "INSEE_DEP": "41", "NOM_DEP": "Loir-et-Cher", "Latitude": 47.799, "Longitude": 1.036 }, "geometry": { "type": "Point", "coordinates": [ 1.036, 47.799 ] } },
{ "type": "Feature", "properties": { "Nom_Gare": "Montauban-Ville-Bourbon", "INSEE_REG": "84", "NOM_REG": "Auvergne-Rhône-Alpes", "INSEE_DEP": "42", "NOM_DEP": "Loire", "Latitude": 45.429, "Longitude": 4.36 }, "geometry": { "type": "Point", "coordinates": [ 4.36, 45.429 ] } },
{ "type": "Feature", "properties": { "Nom_Gare": "Saint-Étienne-Châteaucreux", "INSEE_REG": "84", "NOM_REG": "Auvergne-Rhône-Alpes", "INSEE_DEP": "42", "NOM_DEP": "Loire", "Latitude": 45.443, "Longitude": 4.4 }, "geometry": { "type": "Point", "coordinates": [ 4.4, 45.443 ] } },
{ "type": "Feature", "properties": { "Nom_Gare": "Ancenis", "INSEE_REG": "52", "NOM_REG": "Pays de la Loire", "INSEE_DEP": "44", "NOM_DEP": "Loire-Atlantique", "Latitude": 47.366, "Longitude": -1.184 }, "geometry": { "type": "Point", "coordinates": [ -1.184, 47.366 ] } },
{ "type": "Feature", "properties": { "Nom_Gare": "La Baule-Escoublac", "INSEE_REG": "52", "NOM_REG": "Pays de la Loire", "INSEE_DEP": "44", "NOM_DEP": "Loire-Atlantique", "Latitude": 47.285, "Longitude": -2.371 }, "geometry": { "type": "Point", "coordinates": [ -2.371, 47.285 ] } },
{ "type": "Feature", "properties": { "Nom_Gare": "Le Croisic", "INSEE_REG": "52", "NOM_REG": "Pays de la Loire", "INSEE_DEP": "44", "NOM_DEP": "Loire-Atlantique", "Latitude": 47.287, "Longitude": -2.51 }, "geometry": { "type": "Point", "coordinates": [ -2.51, 47.287 ] } },
{ "type": "Feature", "properties": { "Nom_Gare": "Nantes", "INSEE_REG": "52", "NOM_REG": "Pays de la Loire", "INSEE_DEP": "44", "NOM_DEP": "Loire-Atlantique", "Latitude": 47.259, "Longitude": -1.529 }, "geometry": { "type": "Point", "coordinates": [ -1.529, 47.259 ] } },
{ "type": "Feature", "properties": { "Nom_Gare": "Pornichet", "INSEE_REG": "52", "NOM_REG": "Pays de la Loire", "INSEE_DEP": "44", "NOM_DEP": "Loire-Atlantique", "Latitude": 47.252, "Longitude": -2.314 }, "geometry": { "type": "Point", "coordinates": [ -2.314, 47.252 ] } },
{ "type": "Feature", "properties": { "Nom_Gare": "Le Pouliguen", "INSEE_REG": "52", "NOM_REG": "Pays de la Loire", "INSEE_DEP": "44", "NOM_DEP": "Loire-Atlantique", "Latitude": 47.277, "Longitude": -2.439 }, "geometry": { "type": "Point", "coordinates": [ -2.439, 47.277 ] } },
{ "type": "Feature", "properties": { "Nom_Gare": "Saint-Nazaire", "INSEE_REG": "52", "NOM_REG": "Pays de la Loire", "INSEE_DEP": "44", "NOM_DEP": "Loire-Atlantique", "Latitude": 47.299, "Longitude": -2.184 }, "geometry": { "type": "Point", "coordinates": [ -2.184, 47.299 ] } },
{ "type": "Feature", "properties": { "Nom_Gare": "Agen", "INSEE_REG": "75", "NOM_REG": "Nouvelle-Aquitaine", "INSEE_DEP": "47", "NOM_DEP": "Lot-et-Garonne", "Latitude": 44.206, "Longitude": 0.618 }, "geometry": { "type": "Point", "coordinates": [ 0.618, 44.206 ] } },
{ "type": "Feature", "properties": { "Nom_Gare": "Angers-Saint-Laud", "INSEE_REG": "52", "NOM_REG": "Pays de la Loire", "INSEE_DEP": "49", "NOM_DEP": "Maine-et-Loire", "Latitude": 47.473, "Longitude": -0.552 }, "geometry": { "type": "Point", "coordinates": [ -0.552, 47.473 ] } },
{ "type": "Feature", "properties": { "Nom_Gare": "Saumur", "INSEE_REG": "52", "NOM_REG": "Pays de la Loire", "INSEE_DEP": "49", "NOM_DEP": "Maine-et-Loire", "Latitude": 47.263, "Longitude": -0.073 }, "geometry": { "type": "Point", "coordinates": [ -0.073, 47.263 ] } },
{ "type": "Feature", "properties": { "Nom_Gare": "Châlons-en-Champagne", "INSEE_REG": "44", "NOM_REG": "Grand Est", "INSEE_DEP": "51", "NOM_DEP": "Marne", "Latitude": 48.956, "Longitude": 4.362 }, "geometry": { "type": "Point", "coordinates": [ 4.362, 48.956 ] } },
{ "type": "Feature", "properties": { "Nom_Gare": "Reims", "INSEE_REG": "44", "NOM_REG": "Grand Est", "INSEE_DEP": "51", "NOM_DEP": "Marne", "Latitude": 49.245, "Longitude": 4.041 }, "geometry": { "type": "Point", "coordinates": [ 4.041, 49.245 ] } },
{ "type": "Feature", "properties": { "Nom_Gare": "Vitry-le-François", "INSEE_REG": "44", "NOM_REG": "Grand Est", "INSEE_DEP": "51", "NOM_DEP": "Marne", "Latitude": 48.73, "Longitude": 4.597 }, "geometry": { "type": "Point", "coordinates": [ 4.597, 48.73 ] } },
{ "type": "Feature", "properties": { "Nom_Gare": "Laval", "INSEE_REG": "52", "NOM_REG": "Pays de la Loire", "INSEE_DEP": "53", "NOM_DEP": "Mayenne", "Latitude": 48.077, "Longitude": -0.76 }, "geometry": { "type": "Point", "coordinates": [ -0.76, 48.077 ] } },
{ "type": "Feature", "properties": { "Nom_Gare": "Lunéville", "INSEE_REG": "44", "NOM_REG": "Grand Est", "INSEE_DEP": "54", "NOM_DEP": "Meurthe-et-Moselle", "Latitude": 48.585, "Longitude": 6.483 }, "geometry": { "type": "Point", "coordinates": [ 6.483, 48.585 ] } },
{ "type": "Feature", "properties": { "Nom_Gare": "Nancy-Ville", "INSEE_REG": "44", "NOM_REG": "Grand Est", "INSEE_DEP": "54", "NOM_DEP": "Meurthe-et-Moselle", "Latitude": 48.703, "Longitude": 6.224 }, "geometry": { "type": "Point", "coordinates": [ 6.224, 48.703 ] } },
{ "type": "Feature", "properties": { "Nom_Gare": "Bar-le-Duc", "INSEE_REG": "44", "NOM_REG": "Grand Est", "INSEE_DEP": "55", "NOM_DEP": "Meuse", "Latitude": 48.756, "Longitude": 5.194 }, "geometry": { "type": "Point", "coordinates": [ 5.194, 48.756 ] } },
{ "type": "Feature", "properties": { "Nom_Gare": "Auray", "INSEE_REG": "53", "NOM_REG": "Bretagne", "INSEE_DEP": "56", "NOM_DEP": "Morbihan", "Latitude": 47.663, "Longitude": -2.988 }, "geometry": { "type": "Point", "coordinates": [ -2.988, 47.663 ] } },
{ "type": "Feature", "properties": { "Nom_Gare": "Lorient", "INSEE_REG": "53", "NOM_REG": "Bretagne", "INSEE_DEP": "56", "NOM_DEP": "Morbihan", "Latitude": 47.759, "Longitude": -3.384 }, "geometry": { "type": "Point", "coordinates": [ -3.384, 47.759 ] } },
{ "type": "Feature", "properties": { "Nom_Gare": "Vannes", "INSEE_REG": "53", "NOM_REG": "Bretagne", "INSEE_DEP": "56", "NOM_DEP": "Morbihan", "Latitude": 47.636, "Longitude": -2.773 }, "geometry": { "type": "Point", "coordinates": [ -2.773, 47.636 ] } },
{ "type": "Feature", "properties": { "Nom_Gare": "Forbach", "INSEE_REG": "44", "NOM_REG": "Grand Est", "INSEE_DEP": "57", "NOM_DEP": "Moselle", "Latitude": 49.18, "Longitude": 6.895 }, "geometry": { "type": "Point", "coordinates": [ 6.895, 49.18 ] } },
{ "type": "Feature", "properties": { "Nom_Gare": "Metz-Ville", "INSEE_REG": "44", "NOM_REG": "Grand Est", "INSEE_DEP": "57", "NOM_DEP": "Moselle", "Latitude": 49.101, "Longitude": 6.155 }, "geometry": { "type": "Point", "coordinates": [ 6.155, 49.101 ] } },
{ "type": "Feature", "properties": { "Nom_Gare": "Sarrebourg", "INSEE_REG": "44", "NOM_REG": "Grand Est", "INSEE_DEP": "57", "NOM_DEP": "Moselle", "Latitude": 48.735, "Longitude": 7.052 }, "geometry": { "type": "Point", "coordinates": [ 7.052, 48.735 ] } },
{ "type": "Feature", "properties": { "Nom_Gare": "Thionville", "INSEE_REG": "44", "NOM_REG": "Grand Est", "INSEE_DEP": "57", "NOM_DEP": "Moselle", "Latitude": 49.362, "Longitude": 6.144 }, "geometry": { "type": "Point", "coordinates": [ 6.144, 49.362 ] } },
{ "type": "Feature", "properties": { "Nom_Gare": "Croix - Wasquehal", "INSEE_REG": "32", "NOM_REG": "Hauts-de-France", "INSEE_DEP": "59", "NOM_DEP": "Nord", "Latitude": 50.678, "Longitude": 3.135 }, "geometry": { "type": "Point", "coordinates": [ 3.135, 50.678 ] } },
{ "type": "Feature", "properties": { "Nom_Gare": "Douai", "INSEE_REG": "32", "NOM_REG": "Hauts-de-France", "INSEE_DEP": "59", "NOM_DEP": "Nord", "Latitude": 50.39, "Longitude": 3.09 }, "geometry": { "type": "Point", "coordinates": [ 3.09, 50.39 ] } },
{ "type": "Feature", "properties": { "Nom_Gare": "Dunkerque", "INSEE_REG": "32", "NOM_REG": "Hauts-de-France", "INSEE_DEP": "59", "NOM_DEP": "Nord", "Latitude": 51.046, "Longitude": 2.389 }, "geometry": { "type": "Point", "coordinates": [ 2.389, 51.046 ] } },
{ "type": "Feature", "properties": { "Nom_Gare": "Hazebrouck", "INSEE_REG": "32", "NOM_REG": "Hauts-de-France", "INSEE_DEP": "59", "NOM_DEP": "Nord", "Latitude": 50.738, "Longitude": 2.726 }, "geometry": { "type": "Point", "coordinates": [ 2.726, 50.738 ] } },
{ "type": "Feature", "properties": { "Nom_Gare": "Lille-Europe", "INSEE_REG": "32", "NOM_REG": "Hauts-de-France", "INSEE_DEP": "59", "NOM_DEP": "Nord", "Latitude": 50.641, "Longitude": 3.074 }, "geometry": { "type": "Point", "coordinates": [ 3.074, 50.641 ] } },
{ "type": "Feature", "properties": { "Nom_Gare": "Lille-Flandres", "INSEE_REG": "32", "NOM_REG": "Hauts-de-France", "INSEE_DEP": "59", "NOM_DEP": "Nord", "Latitude": 50.628, "Longitude": 3.056 }, "geometry": { "type": "Point", "coordinates": [ 3.056, 50.628 ] } },
{ "type": "Feature", "properties": { "Nom_Gare": "Roubaix", "INSEE_REG": "32", "NOM_REG": "Hauts-de-France", "INSEE_DEP": "59", "NOM_DEP": "Nord", "Latitude": 50.701, "Longitude": 3.17 }, "geometry": { "type": "Point", "coordinates": [ 3.17, 50.701 ] } },
{ "type": "Feature", "properties": { "Nom_Gare": "Tourcoing", "INSEE_REG": "32", "NOM_REG": "Hauts-de-France", "INSEE_DEP": "59", "NOM_DEP": "Nord", "Latitude": 50.718, "Longitude": 3.141 }, "geometry": { "type": "Point", "coordinates": [ 3.141, 50.718 ] } },
{ "type": "Feature", "properties": { "Nom_Gare": "Valenciennes", "INSEE_REG": "32", "NOM_REG": "Hauts-de-France", "INSEE_DEP": "59", "NOM_DEP": "Nord", "Latitude": 50.342, "Longitude": 3.517 }, "geometry": { "type": "Point", "coordinates": [ 3.517, 50.342 ] } },
{ "type": "Feature", "properties": { "Nom_Gare": "Boulogne-Ville", "INSEE_REG": "32", "NOM_REG": "Hauts-de-France", "INSEE_DEP": "60", "NOM_DEP": "Oise", "Latitude": 49.607, "Longitude": 2.707 }, "geometry": { "type": "Point", "coordinates": [ 2.707, 49.607 ] } },
{ "type": "Feature", "properties": { "Nom_Gare": "Arras", "INSEE_REG": "32", "NOM_REG": "Hauts-de-France", "INSEE_DEP": "62", "NOM_DEP": "Pas-de-Calais", "Latitude": 50.29, "Longitude": 2.778 }, "geometry": { "type": "Point", "coordinates": [ 2.778, 50.29 ] } },
{ "type": "Feature", "properties": { "Nom_Gare": "Béthune", "INSEE_REG": "32", "NOM_REG": "Hauts-de-France", "INSEE_DEP": "62", "NOM_DEP": "Pas-de-Calais", "Latitude": 50.517, "Longitude": 2.636 }, "geometry": { "type": "Point", "coordinates": [ 2.636, 50.517 ] } },
{ "type": "Feature", "properties": { "Nom_Gare": "Calais - Fréthun", "INSEE_REG": "32", "NOM_REG": "Hauts-de-France", "INSEE_DEP": "62", "NOM_DEP": "Pas-de-Calais", "Latitude": 50.935, "Longitude": 1.85 }, "geometry": { "type": "Point", "coordinates": [ 1.85, 50.935 ] } },
{ "type": "Feature", "properties": { "Nom_Gare": "Calais-Ville", "INSEE_REG": "32", "NOM_REG": "Hauts-de-France", "INSEE_DEP": "62", "NOM_DEP": "Pas-de-Calais", "Latitude": 50.43, "Longitude": 3.063 }, "geometry": { "type": "Point", "coordinates": [ 3.063, 50.43 ] } },
{ "type": "Feature", "properties": { "Nom_Gare": "Étaples - Le Touquet", "INSEE_REG": "32", "NOM_REG": "Hauts-de-France", "INSEE_DEP": "62", "NOM_DEP": "Pas-de-Calais", "Latitude": 50.525, "Longitude": 1.589 }, "geometry": { "type": "Point", "coordinates": [ 1.589, 50.525 ] } },
{ "type": "Feature", "properties": { "Nom_Gare": "Lens", "INSEE_REG": "32", "NOM_REG": "Hauts-de-France", "INSEE_DEP": "62", "NOM_DEP": "Pas-de-Calais", "Latitude": 50.419, "Longitude": 3.027 }, "geometry": { "type": "Point", "coordinates": [ 3.027, 50.419 ] } },
{ "type": "Feature", "properties": { "Nom_Gare": "Rang-du-Fliers - Verton", "INSEE_REG": "32", "NOM_REG": "Hauts-de-France", "INSEE_DEP": "62", "NOM_DEP": "Pas-de-Calais", "Latitude": 50.414, "Longitude": 1.619 }, "geometry": { "type": "Point", "coordinates": [ 1.619, 50.414 ] } },
{ "type": "Feature", "properties": { "Nom_Gare": "Bayonne", "INSEE_REG": "75", "NOM_REG": "Nouvelle-Aquitaine", "INSEE_DEP": "64", "NOM_DEP": "Pyrénées-Atlantiques", "Latitude": 43.503, "Longitude": -1.443 }, "geometry": { "type": "Point", "coordinates": [ -1.443, 43.503 ] } },
{ "type": "Feature", "properties": { "Nom_Gare": "Biarritz", "INSEE_REG": "75", "NOM_REG": "Nouvelle-Aquitaine", "INSEE_DEP": "64", "NOM_DEP": "Pyrénées-Atlantiques", "Latitude": 43.472, "Longitude": -1.555 }, "geometry": { "type": "Point", "coordinates": [ -1.555, 43.472 ] } },
{ "type": "Feature", "properties": { "Nom_Gare": "Hendaye", "INSEE_REG": "75", "NOM_REG": "Nouvelle-Aquitaine", "INSEE_DEP": "64", "NOM_DEP": "Pyrénées-Atlantiques", "Latitude": 43.355, "Longitude": -1.774 }, "geometry": { "type": "Point", "coordinates": [ -1.774, 43.355 ] } },
{ "type": "Feature", "properties": { "Nom_Gare": "Orthez", "INSEE_REG": "75", "NOM_REG": "Nouvelle-Aquitaine", "INSEE_DEP": "64", "NOM_DEP": "Pyrénées-Atlantiques", "Latitude": 43.491, "Longitude": -0.768 }, "geometry": { "type": "Point", "coordinates": [ -0.768, 43.491 ] } },
{ "type": "Feature", "properties": { "Nom_Gare": "Pau", "INSEE_REG": "75", "NOM_REG": "Nouvelle-Aquitaine", "INSEE_DEP": "64", "NOM_DEP": "Pyrénées-Atlantiques", "Latitude": 43.295, "Longitude": -0.35 }, "geometry": { "type": "Point", "coordinates": [ -0.35, 43.295 ] } },
{ "type": "Feature", "properties": { "Nom_Gare": "Saint-Jean-de-Luz - Ciboure", "INSEE_REG": "75", "NOM_REG": "Nouvelle-Aquitaine", "INSEE_DEP": "64", "NOM_DEP": "Pyrénées-Atlantiques", "Latitude": 43.381, "Longitude": -1.676 }, "geometry": { "type": "Point", "coordinates": [ -1.676, 43.381 ] } },
{ "type": "Feature", "properties": { "Nom_Gare": "Lourdes", "INSEE_REG": "76", "NOM_REG": "Occitanie", "INSEE_DEP": "65", "NOM_DEP": "Hautes-Pyrénées", "Latitude": 43.095, "Longitude": -0.049 }, "geometry": { "type": "Point", "coordinates": [ -0.049, 43.095 ] } },
{ "type": "Feature", "properties": { "Nom_Gare": "Tarbes", "INSEE_REG": "76", "NOM_REG": "Occitanie", "INSEE_DEP": "65", "NOM_DEP": "Hautes-Pyrénées", "Latitude": 43.232, "Longitude": 0.071 }, "geometry": { "type": "Point", "coordinates": [ 0.071, 43.232 ] } },
{ "type": "Feature", "properties": { "Nom_Gare": "Perpignan", "INSEE_REG": "76", "NOM_REG": "Occitanie", "INSEE_DEP": "66", "NOM_DEP": "Pyrénées-Orientales", "Latitude": 42.697, "Longitude": 2.888 }, "geometry": { "type": "Point", "coordinates": [ 2.888, 42.697 ] } },
{ "type": "Feature", "properties": { "Nom_Gare": "Saverne", "INSEE_REG": "44", "NOM_REG": "Grand Est", "INSEE_DEP": "67", "NOM_DEP": "Bas-Rhin", "Latitude": 48.744, "Longitude": 7.359 }, "geometry": { "type": "Point", "coordinates": [ 7.359, 48.744 ] } },
{ "type": "Feature", "properties": { "Nom_Gare": "Sélestat", "INSEE_REG": "44", "NOM_REG": "Grand Est", "INSEE_DEP": "67", "NOM_DEP": "Bas-Rhin", "Latitude": 48.265, "Longitude": 7.441 }, "geometry": { "type": "Point", "coordinates": [ 7.441, 48.265 ] } },
{ "type": "Feature", "properties": { "Nom_Gare": "Strasbourg-Ville", "INSEE_REG": "44", "NOM_REG": "Grand Est", "INSEE_DEP": "67", "NOM_DEP": "Bas-Rhin", "Latitude": 48.561, "Longitude": 7.76 }, "geometry": { "type": "Point", "coordinates": [ 7.76, 48.561 ] } },
{ "type": "Feature", "properties": { "Nom_Gare": "Colmar", "INSEE_REG": "44", "NOM_REG": "Grand Est", "INSEE_DEP": "68", "NOM_DEP": "Haut-Rhin", "Latitude": 48.077, "Longitude": 7.361 }, "geometry": { "type": "Point", "coordinates": [ 7.361, 48.077 ] } },
{ "type": "Feature", "properties": { "Nom_Gare": "Mulhouse-Ville", "INSEE_REG": "44", "NOM_REG": "Grand Est", "INSEE_DEP": "68", "NOM_DEP": "Haut-Rhin", "Latitude": 47.746, "Longitude": 7.34 }, "geometry": { "type": "Point", "coordinates": [ 7.34, 47.746 ] } },
{ "type": "Feature", "properties": { "Nom_Gare": "Besançon Franche-Comté TGV", "INSEE_REG": "84", "NOM_REG": "Auvergne-Rhône-Alpes", "INSEE_DEP": "69", "NOM_DEP": "Rhône", "Latitude": 45.985, "Longitude": 4.706 }, "geometry": { "type": "Point", "coordinates": [ 4.706, 45.985 ] } },
{ "type": "Feature", "properties": { "Nom_Gare": "Lyon-Part-Dieu", "INSEE_REG": "84", "NOM_REG": "Auvergne-Rhône-Alpes", "INSEE_DEP": "69", "NOM_DEP": "Rhône", "Latitude": 45.759, "Longitude": 4.841 }, "geometry": { "type": "Point", "coordinates": [ 4.841, 45.759 ] } },
{ "type": "Feature", "properties": { "Nom_Gare": "Lyon-Perrache", "INSEE_REG": "84", "NOM_REG": "Auvergne-Rhône-Alpes", "INSEE_DEP": "69", "NOM_DEP": "Rhône", "Latitude": 45.749, "Longitude": 4.828 }, "geometry": { "type": "Point", "coordinates": [ 4.828, 45.749 ] } },
{ "type": "Feature", "properties": { "Nom_Gare": "Lyon-Saint-Exupéry TGV", "INSEE_REG": "84", "NOM_REG": "Auvergne-Rhône-Alpes", "INSEE_DEP": "69", "NOM_DEP": "Rhône", "Latitude": 45.758, "Longitude": 4.828 }, "geometry": { "type": "Point", "coordinates": [ 4.828, 45.758 ] } },
{ "type": "Feature", "properties": { "Nom_Gare": "Marne-la-Vallée - Chessy", "INSEE_REG": "84", "NOM_REG": "Auvergne-Rhône-Alpes", "INSEE_DEP": "69", "NOM_DEP": "Rhône", "Latitude": 45.888, "Longitude": 4.621 }, "geometry": { "type": "Point", "coordinates": [ 4.621, 45.888 ] } },
{ "type": "Feature", "properties": { "Nom_Gare": "Paris-Gare-de-Lyon", "INSEE_REG": "84", "NOM_REG": "Auvergne-Rhône-Alpes", "INSEE_DEP": "69", "NOM_DEP": "Rhône", "Latitude": 45.78, "Longitude": 4.804 }, "geometry": { "type": "Point", "coordinates": [ 4.804, 45.78 ] } },
{ "type": "Feature", "properties": { "Nom_Gare": "Dole-Ville", "INSEE_REG": "27", "NOM_REG": "Bourgogne-Franche-Comté", "INSEE_DEP": "70", "NOM_DEP": "Haute-Saône", "Latitude": 47.439, "Longitude": 5.589 }, "geometry": { "type": "Point", "coordinates": [ 5.589, 47.439 ] } },
{ "type": "Feature", "properties": { "Nom_Gare": "Chalon-sur-Saône", "INSEE_REG": "27", "NOM_REG": "Bourgogne-Franche-Comté", "INSEE_DEP": "71", "NOM_DEP": "Saône-et-Loire", "Latitude": 46.789, "Longitude": 4.841 }, "geometry": { "type": "Point", "coordinates": [ 4.841, 46.789 ] } },
{ "type": "Feature", "properties": { "Nom_Gare": "Le Creusot - Montceau - Montchanin", "INSEE_REG": "27", "NOM_REG": "Bourgogne-Franche-Comté", "INSEE_DEP": "71", "NOM_DEP": "Saône-et-Loire", "Latitude": 46.669, "Longitude": 4.377 }, "geometry": { "type": "Point", "coordinates": [ 4.377, 46.669 ] } },
{ "type": "Feature", "properties": { "Nom_Gare": "Mâcon-Loché TGV", "INSEE_REG": "27", "NOM_REG": "Bourgogne-Franche-Comté", "INSEE_DEP": "71", "NOM_DEP": "Saône-et-Loire", "Latitude": 46.277, "Longitude": 4.784 }, "geometry": { "type": "Point", "coordinates": [ 4.784, 46.277 ] } },
{ "type": "Feature", "properties": { "Nom_Gare": "Le Mans", "INSEE_REG": "52", "NOM_REG": "Pays de la Loire", "INSEE_DEP": "72", "NOM_DEP": "Sarthe", "Latitude": 47.999, "Longitude": 0.192 }, "geometry": { "type": "Point", "coordinates": [ 0.192, 47.999 ] } },
{ "type": "Feature", "properties": { "Nom_Gare": "Sablé-sur-Sarthe", "INSEE_REG": "52", "NOM_REG": "Pays de la Loire", "INSEE_DEP": "72", "NOM_DEP": "Sarthe", "Latitude": 47.837, "Longitude": -0.329 }, "geometry": { "type": "Point", "coordinates": [ -0.329, 47.837 ] } },
{ "type": "Feature", "properties": { "Nom_Gare": "Aime-La Plagne", "INSEE_REG": "84", "NOM_REG": "Auvergne-Rhône-Alpes", "INSEE_DEP": "73", "NOM_DEP": "Savoie", "Latitude": 45.573, "Longitude": 6.606 }, "geometry": { "type": "Point", "coordinates": [ 6.606, 45.573 ] } },
{ "type": "Feature", "properties": { "Nom_Gare": "Aix-les-Bains-Le Revard", "INSEE_REG": "84", "NOM_REG": "Auvergne-Rhône-Alpes", "INSEE_DEP": "73", "NOM_DEP": "Savoie", "Latitude": 45.69, "Longitude": 5.919 }, "geometry": { "type": "Point", "coordinates": [ 5.919, 45.69 ] } },
{ "type": "Feature", "properties": { "Nom_Gare": "Albertville", "INSEE_REG": "84", "NOM_REG": "Auvergne-Rhône-Alpes", "INSEE_DEP": "73", "NOM_DEP": "Savoie", "Latitude": 45.659, "Longitude": 6.384 }, "geometry": { "type": "Point", "coordinates": [ 6.384, 45.659 ] } },
{ "type": "Feature", "properties": { "Nom_Gare": "Bourg-Saint-Maurice", "INSEE_REG": "84", "NOM_REG": "Auvergne-Rhône-Alpes", "INSEE_DEP": "73", "NOM_DEP": "Savoie", "Latitude": 45.573, "Longitude": 6.828 }, "geometry": { "type": "Point", "coordinates": [ 6.828, 45.573 ] } },
{ "type": "Feature", "properties": { "Nom_Gare": "Chambéry - Challes-les-Eaux", "INSEE_REG": "84", "NOM_REG": "Auvergne-Rhône-Alpes", "INSEE_DEP": "73", "NOM_DEP": "Savoie", "Latitude": 45.559, "Longitude": 5.975 }, "geometry": { "type": "Point", "coordinates": [ 5.975, 45.559 ] } },
{ "type": "Feature", "properties": { "Nom_Gare": "Landry", "INSEE_REG": "84", "NOM_REG": "Auvergne-Rhône-Alpes", "INSEE_DEP": "73", "NOM_DEP": "Savoie", "Latitude": 45.576, "Longitude": 6.736 }, "geometry": { "type": "Point", "coordinates": [ 6.736, 45.576 ] } },
{ "type": "Feature", "properties": { "Nom_Gare": "Modane", "INSEE_REG": "84", "NOM_REG": "Auvergne-Rhône-Alpes", "INSEE_DEP": "73", "NOM_DEP": "Savoie", "Latitude": 45.201, "Longitude": 6.671 }, "geometry": { "type": "Point", "coordinates": [ 6.671, 45.201 ] } },
{ "type": "Feature", "properties": { "Nom_Gare": "Moûtiers - Salins - Brides-les-Bains", "INSEE_REG": "84", "NOM_REG": "Auvergne-Rhône-Alpes", "INSEE_DEP": "73", "NOM_DEP": "Savoie", "Latitude": 45.452, "Longitude": 6.567 }, "geometry": { "type": "Point", "coordinates": [ 6.567, 45.452 ] } },
{ "type": "Feature", "properties": { "Nom_Gare": "Saint-Avre - La Chambre", "INSEE_REG": "84", "NOM_REG": "Auvergne-Rhône-Alpes", "INSEE_DEP": "73", "NOM_DEP": "Savoie", "Latitude": 45.356, "Longitude": 6.304 }, "geometry": { "type": "Point", "coordinates": [ 6.304, 45.356 ] } },
{ "type": "Feature", "properties": { "Nom_Gare": "Saint-Jean-de-Maurienne - Vallée de l'Arvan", "INSEE_REG": "84", "NOM_REG": "Auvergne-Rhône-Alpes", "INSEE_DEP": "73", "NOM_DEP": "Savoie", "Latitude": 45.272, "Longitude": 6.352 }, "geometry": { "type": "Point", "coordinates": [ 6.352, 45.272 ] } },
{ "type": "Feature", "properties": { "Nom_Gare": "Annecy", "INSEE_REG": "84", "NOM_REG": "Auvergne-Rhône-Alpes", "INSEE_DEP": "74", "NOM_DEP": "Haute-Savoie", "Latitude": 45.898, "Longitude": 6.119 }, "geometry": { "type": "Point", "coordinates": [ 6.119, 45.898 ] } },
{ "type": "Feature", "properties": { "Nom_Gare": "Annemasse", "INSEE_REG": "84", "NOM_REG": "Auvergne-Rhône-Alpes", "INSEE_DEP": "74", "NOM_DEP": "Haute-Savoie", "Latitude": 46.185, "Longitude": 6.242 }, "geometry": { "type": "Point", "coordinates": [ 6.242, 46.185 ] } },
{ "type": "Feature", "properties": { "Nom_Gare": "Évian-les-Bains", "INSEE_REG": "84", "NOM_REG": "Auvergne-Rhône-Alpes", "INSEE_DEP": "74", "NOM_DEP": "Haute-Savoie", "Latitude": 46.398, "Longitude": 6.602 }, "geometry": { "type": "Point", "coordinates": [ 6.602, 46.398 ] } },
{ "type": "Feature", "properties": { "Nom_Gare": "Saint-Gervais-les-Bains-Le Fayet", "INSEE_REG": "84", "NOM_REG": "Auvergne-Rhône-Alpes", "INSEE_DEP": "74", "NOM_DEP": "Haute-Savoie", "Latitude": 45.868, "Longitude": 6.682 }, "geometry": { "type": "Point", "coordinates": [ 6.682, 45.868 ] } },
{ "type": "Feature", "properties": { "Nom_Gare": "Sallanches - Combloux - Megève", "INSEE_REG": "84", "NOM_REG": "Auvergne-Rhône-Alpes", "INSEE_DEP": "74", "NOM_DEP": "Haute-Savoie", "Latitude": 45.901, "Longitude": 6.643 }, "geometry": { "type": "Point", "coordinates": [ 6.643, 45.901 ] } },
{ "type": "Feature", "properties": { "Nom_Gare": "Thonon-les-Bains", "INSEE_REG": "84", "NOM_REG": "Auvergne-Rhône-Alpes", "INSEE_DEP": "74", "NOM_DEP": "Haute-Savoie", "Latitude": 46.374, "Longitude": 6.485 }, "geometry": { "type": "Point", "coordinates": [ 6.485, 46.374 ] } },
{ "type": "Feature", "properties": { "Nom_Gare": "Paris-Est", "INSEE_REG": "11", "NOM_REG": "Île-de-France", "INSEE_DEP": "75", "NOM_DEP": "Paris", "Latitude": 48.871, "Longitude": 2.395 }, "geometry": { "type": "Point", "coordinates": [ 2.395, 48.871 ] } },
{ "type": "Feature", "properties": { "Nom_Gare": "Paris-Montparnasse", "INSEE_REG": "11", "NOM_REG": "Île-de-France", "INSEE_DEP": "75", "NOM_DEP": "Paris", "Latitude": 48.838, "Longitude": 2.317 }, "geometry": { "type": "Point", "coordinates": [ 2.317, 48.838 ] } },
{ "type": "Feature", "properties": { "Nom_Gare": "Paris-Nord", "INSEE_REG": "11", "NOM_REG": "Île-de-France", "INSEE_DEP": "75", "NOM_DEP": "Paris", "Latitude": 48.881, "Longitude": 2.356 }, "geometry": { "type": "Point", "coordinates": [ 2.356, 48.881 ] } },
{ "type": "Feature", "properties": { "Nom_Gare": "Le Havre", "INSEE_REG": "28", "NOM_REG": "Normandie", "INSEE_DEP": "76", "NOM_DEP": "Seine-Maritime", "Latitude": 49.505, "Longitude": 0.174 }, "geometry": { "type": "Point", "coordinates": [ 0.174, 49.505 ] } },
{ "type": "Feature", "properties": { "Nom_Gare": "Aéroport Charles-de-Gaulle TGV", "INSEE_REG": "11", "NOM_REG": "Île-de-France", "INSEE_DEP": "77", "NOM_DEP": "Seine-et-Marne", "Latitude": 49.006, "Longitude": 2.571 }, "geometry": { "type": "Point", "coordinates": [ 2.571, 49.006 ] } },
{ "type": "Feature", "properties": { "Nom_Gare": "Mantes-la-Jolie", "INSEE_REG": "11", "NOM_REG": "Île-de-France", "INSEE_DEP": "78", "NOM_DEP": "Yvelines", "Latitude": 48.994, "Longitude": 1.721 }, "geometry": { "type": "Point", "coordinates": [ 1.721, 48.994 ] } },
{ "type": "Feature", "properties": { "Nom_Gare": "Versailles-Chantiers", "INSEE_REG": "11", "NOM_REG": "Île-de-France", "INSEE_DEP": "78", "NOM_DEP": "Yvelines", "Latitude": 48.797, "Longitude": 2.136 }, "geometry": { "type": "Point", "coordinates": [ 2.136, 48.797 ] } },
{ "type": "Feature", "properties": { "Nom_Gare": "Niort", "INSEE_REG": "75", "NOM_REG": "Nouvelle-Aquitaine", "INSEE_DEP": "79", "NOM_DEP": "Deux-Sèvres", "Latitude": 46.319, "Longitude": -0.458 }, "geometry": { "type": "Point", "coordinates": [ -0.458, 46.319 ] } },
{ "type": "Feature", "properties": { "Nom_Gare": "Saint-Maixent (Deux-Sèvres)", "INSEE_REG": "75", "NOM_REG": "Nouvelle-Aquitaine", "INSEE_DEP": "79", "NOM_DEP": "Deux-Sèvres", "Latitude": 46.409, "Longitude": -0.205 }, "geometry": { "type": "Point", "coordinates": [ -0.205, 46.409 ] } },
{ "type": "Feature", "properties": { "Nom_Gare": "Amiens", "INSEE_REG": "32", "NOM_REG": "Hauts-de-France", "INSEE_DEP": "80", "NOM_DEP": "Somme", "Latitude": 49.9, "Longitude": 2.289 }, "geometry": { "type": "Point", "coordinates": [ 2.289, 49.9 ] } },
{ "type": "Feature", "properties": { "Nom_Gare": "Les Arcs - Draguignan", "INSEE_REG": "93", "NOM_REG": "Provence-Alpes-Côte d'Azur", "INSEE_DEP": "83", "NOM_DEP": "Var", "Latitude": 43.504, "Longitude": 6.483 }, "geometry": { "type": "Point", "coordinates": [ 6.483, 43.504 ] } },
{ "type": "Feature", "properties": { "Nom_Gare": "Hyères", "INSEE_REG": "93", "NOM_REG": "Provence-Alpes-Côte d'Azur", "INSEE_DEP": "83", "NOM_DEP": "Var", "Latitude": 43.09, "Longitude": 6.123 }, "geometry": { "type": "Point", "coordinates": [ 6.123, 43.09 ] } },
{ "type": "Feature", "properties": { "Nom_Gare": "Saint-Raphaël-Valescure", "INSEE_REG": "93", "NOM_REG": "Provence-Alpes-Côte d'Azur", "INSEE_DEP": "83", "NOM_DEP": "Var", "Latitude": 43.441, "Longitude": 6.776 }, "geometry": { "type": "Point", "coordinates": [ 6.776, 43.441 ] } },
{ "type": "Feature", "properties": { "Nom_Gare": "Toulon", "INSEE_REG": "93", "NOM_REG": "Provence-Alpes-Côte d'Azur", "INSEE_DEP": "83", "NOM_DEP": "Var", "Latitude": 43.133, "Longitude": 5.964 }, "geometry": { "type": "Point", "coordinates": [ 5.964, 43.133 ] } },
{ "type": "Feature", "properties": { "Nom_Gare": "Avignon-Centre", "INSEE_REG": "93", "NOM_REG": "Provence-Alpes-Côte d'Azur", "INSEE_DEP": "84", "NOM_DEP": "Vaucluse", "Latitude": 44.046, "Longitude": 5.031 }, "geometry": { "type": "Point", "coordinates": [ 5.031, 44.046 ] } },
{ "type": "Feature", "properties": { "Nom_Gare": "Orange", "INSEE_REG": "93", "NOM_REG": "Provence-Alpes-Côte d'Azur", "INSEE_DEP": "84", "NOM_DEP": "Vaucluse", "Latitude": 44.14, "Longitude": 4.812 }, "geometry": { "type": "Point", "coordinates": [ 4.812, 44.14 ] } },
{ "type": "Feature", "properties": { "Nom_Gare": "La Roche-sur-Yon", "INSEE_REG": "52", "NOM_REG": "Pays de la Loire", "INSEE_DEP": "85", "NOM_DEP": "Vendée", "Latitude": 46.67, "Longitude": -1.432 }, "geometry": { "type": "Point", "coordinates": [ -1.432, 46.67 ] } },
{ "type": "Feature", "properties": { "Nom_Gare": "Les Sables-d'Olonne", "INSEE_REG": "52", "NOM_REG": "Pays de la Loire", "INSEE_DEP": "85", "NOM_DEP": "Vendée", "Latitude": 46.479, "Longitude": -1.758 }, "geometry": { "type": "Point", "coordinates": [ -1.758, 46.479 ] } },
{ "type": "Feature", "properties": { "Nom_Gare": "Châtellerault", "INSEE_REG": "75", "NOM_REG": "Nouvelle-Aquitaine", "INSEE_DEP": "86", "NOM_DEP": "Vienne", "Latitude": 46.796, "Longitude": 0.525 }, "geometry": { "type": "Point", "coordinates": [ 0.525, 46.796 ] } },
{ "type": "Feature", "properties": { "Nom_Gare": "Futuroscope", "INSEE_REG": "75", "NOM_REG": "Nouvelle-Aquitaine", "INSEE_DEP": "86", "NOM_DEP": "Vienne", "Latitude": 46.659, "Longitude": 0.362 }, "geometry": { "type": "Point", "coordinates": [ 0.362, 46.659 ] } },
{ "type": "Feature", "properties": { "Nom_Gare": "Poitiers", "INSEE_REG": "75", "NOM_REG": "Nouvelle-Aquitaine", "INSEE_DEP": "86", "NOM_DEP": "Vienne", "Latitude": 46.579, "Longitude": 0.335 }, "geometry": { "type": "Point", "coordinates": [ 0.335, 46.579 ] } },
{ "type": "Feature", "properties": { "Nom_Gare": "Épinal", "INSEE_REG": "44", "NOM_REG": "Grand Est", "INSEE_DEP": "88", "NOM_DEP": "Vosges", "Latitude": 48.175, "Longitude": 6.45 }, "geometry": { "type": "Point", "coordinates": [ 6.45, 48.175 ] } },
{ "type": "Feature", "properties": { "Nom_Gare": "Remiremont", "INSEE_REG": "44", "NOM_REG": "Grand Est", "INSEE_DEP": "88", "NOM_DEP": "Vosges", "Latitude": 48.006, "Longitude": 6.604 }, "geometry": { "type": "Point", "coordinates": [ 6.604, 48.006 ] } },
{ "type": "Feature", "properties": { "Nom_Gare": "Saint-Dié-des-Vosges", "INSEE_REG": "44", "NOM_REG": "Grand Est", "INSEE_DEP": "88", "NOM_DEP": "Vosges", "Latitude": 48.293, "Longitude": 6.962 }, "geometry": { "type": "Point", "coordinates": [ 6.962, 48.293 ] } },
{ "type": "Feature", "properties": { "Nom_Gare": "Saint-Michel - Valloire", "INSEE_REG": "44", "NOM_REG": "Grand Est", "INSEE_DEP": "88", "NOM_DEP": "Vosges", "Latitude": 48.157, "Longitude": 6.134 }, "geometry": { "type": "Point", "coordinates": [ 6.134, 48.157 ] } },
{ "type": "Feature", "properties": { "Nom_Gare": "Belfort - Montbéliard TGV", "INSEE_REG": "27", "NOM_REG": "Bourgogne-Franche-Comté", "INSEE_DEP": "90", "NOM_DEP": "Territoire de Belfort", "Latitude": 47.637, "Longitude": 6.858 }, "geometry": { "type": "Point", "coordinates": [ 6.858, 47.637 ] } },
{ "type": "Feature", "properties": { "Nom_Gare": "Massy - Palaiseau", "INSEE_REG": "11", "NOM_REG": "Île-de-France", "INSEE_DEP": "91", "NOM_DEP": "Essonne", "Latitude": 48.731, "Longitude": 2.243 }, "geometry": { "type": "Point", "coordinates": [ 2.243, 48.731 ] } },
{ "type": "Feature", "properties": { "Nom_Gare": "Massy TGV", "INSEE_REG": "11", "NOM_REG": "Île-de-France", "INSEE_DEP": "91", "NOM_DEP": "Essonne", "Latitude": 48.736, "Longitude": 2.291 }, "geometry": { "type": "Point", "coordinates": [ 2.291, 48.736 ] } }
]
}
