{
   "type": "FeatureCollection",
   "features": [
  {
    "type": "Feature",
    "geometry": {
       "type": "Point",
       "coordinates":  [ 4.847,46.097 ]
    },
    "properties": {
    "FIELD1":1,
    "Nom_Gare":"Aix-en-Provence TGV",
    "INSEE_REG":84,
    "NOM_REG":"Auvergne-Rh?ne-Alpes",
    "INSEE_DEP":1,
    "NOM_DEP":"Ain"
    }
  },
  {
    "type": "Feature",
    "geometry": {
       "type": "Point",
       "coordinates":  [ 5.824,46.114 ]
    },
    "properties": {
    "FIELD1":2,
    "Nom_Gare":"Bellegarde",
    "INSEE_REG":84,
    "NOM_REG":"Auvergne-Rh?ne-Alpes",
    "INSEE_DEP":1,
    "NOM_DEP":"Ain"
    }
  },
  {
    "type": "Feature",
    "geometry": {
       "type": "Point",
       "coordinates":  [ 5.275,46.196 ]
    },
    "properties": {
    "FIELD1":3,
    "Nom_Gare":"Bourg-en-Bresse",
    "INSEE_REG":84,
    "NOM_REG":"Auvergne-Rh?ne-Alpes",
    "INSEE_DEP":1,
    "NOM_DEP":"Ain"
    }
  },
  {
    "type": "Feature",
    "geometry": {
       "type": "Point",
       "coordinates":  [ 5.577,46.171 ]
    },
    "properties": {
    "FIELD1":4,
    "Nom_Gare":"Cluses",
    "INSEE_REG":84,
    "NOM_REG":"Auvergne-Rh?ne-Alpes",
    "INSEE_DEP":1,
    "NOM_DEP":"Ain"
    }
  },
  {
    "type": "Feature",
    "geometry": {
       "type": "Point",
       "coordinates":  [ 5.521,46.181 ]
    },
    "properties": {
    "FIELD1":5,
    "Nom_Gare":"Nurieux",
    "INSEE_REG":84,
    "NOM_REG":"Auvergne-Rh?ne-Alpes",
    "INSEE_DEP":1,
    "NOM_DEP":"Ain"
    }
  },
  {
    "type": "Feature",
    "geometry": {
       "type": "Point",
       "coordinates":  [ 7.108,43.584 ]
    },
    "properties": {
    "FIELD1":6,
    "Nom_Gare":"Antibes",
    "INSEE_REG":93,
    "NOM_REG":"Provence-Alpes-C?te d'Azur",
    "INSEE_DEP":6,
    "NOM_DEP":"Alpes-Maritimes"
    }
  },
  {
    "type": "Feature",
    "geometry": {
       "type": "Point",
       "coordinates":  [ 7.146,43.653 ]
    },
    "properties": {
    "FIELD1":7,
    "Nom_Gare":"Cannes",
    "INSEE_REG":93,
    "NOM_REG":"Provence-Alpes-C?te d'Azur",
    "INSEE_DEP":6,
    "NOM_DEP":"Alpes-Maritimes"
    }
  },
  {
    "type": "Feature",
    "geometry": {
       "type": "Point",
       "coordinates":  [ 7.489,43.774 ]
    },
    "properties": {
    "FIELD1":8,
    "Nom_Gare":"Menton",
    "INSEE_REG":93,
    "NOM_REG":"Provence-Alpes-C?te d'Azur",
    "INSEE_DEP":6,
    "NOM_DEP":"Alpes-Maritimes"
    }
  },
  {
    "type": "Feature",
    "geometry": {
       "type": "Point",
       "coordinates":  [ 7.272,43.697 ]
    },
    "properties": {
    "FIELD1":9,
    "Nom_Gare":"Nice-Ville",
    "INSEE_REG":93,
    "NOM_REG":"Provence-Alpes-C?te d'Azur",
    "INSEE_DEP":6,
    "NOM_DEP":"Alpes-Maritimes"
    }
  },
  {
    "type": "Feature",
    "geometry": {
       "type": "Point",
       "coordinates":  [ 4.72,49.771 ]
    },
    "properties": {
    "FIELD1":10,
    "Nom_Gare":"Charleville-M?zi?res",
    "INSEE_REG":44,
    "NOM_REG":"Grand Est",
    "INSEE_DEP":8,
    "NOM_DEP":"Ardennes"
    }
  },
  {
    "type": "Feature",
    "geometry": {
       "type": "Point",
       "coordinates":  [ 4.402,49.5 ]
    },
    "properties": {
    "FIELD1":11,
    "Nom_Gare":"Rethel",
    "INSEE_REG":44,
    "NOM_REG":"Grand Est",
    "INSEE_DEP":8,
    "NOM_DEP":"Ardennes"
    }
  },
  {
    "type": "Feature",
    "geometry": {
       "type": "Point",
       "coordinates":  [ 4.943,49.705 ]
    },
    "properties": {
    "FIELD1":12,
    "Nom_Gare":"Sedan",
    "INSEE_REG":44,
    "NOM_REG":"Grand Est",
    "INSEE_DEP":8,
    "NOM_DEP":"Ardennes"
    }
  },
  {
    "type": "Feature",
    "geometry": {
       "type": "Point",
       "coordinates":  [ 4.789,48.119 ]
    },
    "properties": {
    "FIELD1":13,
    "Nom_Gare":"Dijon-Ville",
    "INSEE_REG":44,
    "NOM_REG":"Grand Est",
    "INSEE_DEP":10,
    "NOM_DEP":"Aube"
    }
  },
  {
    "type": "Feature",
    "geometry": {
       "type": "Point",
       "coordinates":  [ 2.405,43.179 ]
    },
    "properties": {
    "FIELD1":14,
    "Nom_Gare":"Carcassonne",
    "INSEE_REG":76,
    "NOM_REG":"Occitanie",
    "INSEE_DEP":11,
    "NOM_DEP":"Aude"
    }
  },
  {
    "type": "Feature",
    "geometry": {
       "type": "Point",
       "coordinates":  [ 3.026,43.182 ]
    },
    "properties": {
    "FIELD1":15,
    "Nom_Gare":"Narbonne",
    "INSEE_REG":76,
    "NOM_REG":"Occitanie",
    "INSEE_DEP":11,
    "NOM_DEP":"Aude"
    }
  },
  {
    "type": "Feature",
    "geometry": {
       "type": "Point",
       "coordinates":  [ 5.071,43.641 ]
    },
    "properties": {
    "FIELD1":16,
    "Nom_Gare":"Arles",
    "INSEE_REG":93,
    "NOM_REG":"Provence-Alpes-C?te d'Azur",
    "INSEE_DEP":13,
    "NOM_DEP":"Bouches-du-Rh?ne"
    }
  },
  {
    "type": "Feature",
    "geometry": {
       "type": "Point",
       "coordinates":  [ 5.095,43.657 ]
    },
    "properties": {
    "FIELD1":17,
    "Nom_Gare":"Avignon TGV",
    "INSEE_REG":93,
    "NOM_REG":"Provence-Alpes-C?te d'Azur",
    "INSEE_DEP":13,
    "NOM_DEP":"Bouches-du-Rh?ne"
    }
  },
  {
    "type": "Feature",
    "geometry": {
       "type": "Point",
       "coordinates":  [ 5.432,43.255 ]
    },
    "properties": {
    "FIELD1":18,
    "Nom_Gare":"Marseille-Saint-Charles",
    "INSEE_REG":93,
    "NOM_REG":"Provence-Alpes-C?te d'Azur",
    "INSEE_DEP":13,
    "NOM_DEP":"Bouches-du-Rh?ne"
    }
  },
  {
    "type": "Feature",
    "geometry": {
       "type": "Point",
       "coordinates":  [ 5.021,43.643 ]
    },
    "properties": {
    "FIELD1":19,
    "Nom_Gare":"Miramas",
    "INSEE_REG":93,
    "NOM_REG":"Provence-Alpes-C?te d'Azur",
    "INSEE_DEP":13,
    "NOM_DEP":"Bouches-du-Rh?ne"
    }
  },
  {
    "type": "Feature",
    "geometry": {
       "type": "Point",
       "coordinates":  [ 0.151,45.655 ]
    },
    "properties": {
    "FIELD1":20,
    "Nom_Gare":"Angoul?me",
    "INSEE_REG":75,
    "NOM_REG":"Nouvelle-Aquitaine",
    "INSEE_DEP":16,
    "NOM_DEP":"Charente"
    }
  },
  {
    "type": "Feature",
    "geometry": {
       "type": "Point",
       "coordinates":  [ -0.222,45.62 ]
    },
    "properties": {
    "FIELD1":21,
    "Nom_Gare":"Champagne-Ardenne TGV",
    "INSEE_REG":75,
    "NOM_REG":"Nouvelle-Aquitaine",
    "INSEE_DEP":16,
    "NOM_DEP":"Charente"
    }
  },
  {
    "type": "Feature",
    "geometry": {
       "type": "Point",
       "coordinates":  [ -1.154,46.158 ]
    },
    "properties": {
    "FIELD1":22,
    "Nom_Gare":"La Rochelle-Ville",
    "INSEE_REG":75,
    "NOM_REG":"Nouvelle-Aquitaine",
    "INSEE_DEP":17,
    "NOM_DEP":"Charente-Maritime"
    }
  },
  {
    "type": "Feature",
    "geometry": {
       "type": "Point",
       "coordinates":  [ -0.973,46.318 ]
    },
    "properties": {
    "FIELD1":23,
    "Nom_Gare":"Rouen-Rive-Droite",
    "INSEE_REG":75,
    "NOM_REG":"Nouvelle-Aquitaine",
    "INSEE_DEP":17,
    "NOM_DEP":"Charente-Maritime"
    }
  },
  {
    "type": "Feature",
    "geometry": {
       "type": "Point",
       "coordinates":  [ -0.741,46.114 ]
    },
    "properties": {
    "FIELD1":24,
    "Nom_Gare":"Surg?res",
    "INSEE_REG":75,
    "NOM_REG":"Nouvelle-Aquitaine",
    "INSEE_DEP":17,
    "NOM_DEP":"Charente-Maritime"
    }
  },
  {
    "type": "Feature",
    "geometry": {
       "type": "Point",
       "coordinates":  [ 4.67,47.104 ]
    },
    "properties": {
    "FIELD1":25,
    "Nom_Gare":"Beaune",
    "INSEE_REG":27,
    "NOM_REG":"Bourgogne-Franche-Comt?",
    "INSEE_DEP":21,
    "NOM_DEP":"C?te-d'Or"
    }
  },
  {
    "type": "Feature",
    "geometry": {
       "type": "Point",
       "coordinates":  [ 4.364,47.837 ]
    },
    "properties": {
    "FIELD1":26,
    "Nom_Gare":"Montbard",
    "INSEE_REG":27,
    "NOM_REG":"Bourgogne-Franche-Comt?",
    "INSEE_DEP":21,
    "NOM_DEP":"C?te-d'Or"
    }
  },
  {
    "type": "Feature",
    "geometry": {
       "type": "Point",
       "coordinates":  [ -3.155,48.563 ]
    },
    "properties": {
    "FIELD1":27,
    "Nom_Gare":"Guingamp",
    "INSEE_REG":53,
    "NOM_REG":"Bretagne",
    "INSEE_DEP":22,
    "NOM_DEP":"C?tes-d'Armor"
    }
  },
  {
    "type": "Feature",
    "geometry": {
       "type": "Point",
       "coordinates":  [ -2.538,48.439 ]
    },
    "properties": {
    "FIELD1":28,
    "Nom_Gare":"Lamballe",
    "INSEE_REG":53,
    "NOM_REG":"Bretagne",
    "INSEE_DEP":22,
    "NOM_DEP":"C?tes-d'Armor"
    }
  },
  {
    "type": "Feature",
    "geometry": {
       "type": "Point",
       "coordinates":  [ -3.472,48.744 ]
    },
    "properties": {
    "FIELD1":29,
    "Nom_Gare":"Lannion",
    "INSEE_REG":53,
    "NOM_REG":"Bretagne",
    "INSEE_DEP":22,
    "NOM_DEP":"C?tes-d'Armor"
    }
  },
  {
    "type": "Feature",
    "geometry": {
       "type": "Point",
       "coordinates":  [ -2.197,48.581 ]
    },
    "properties": {
    "FIELD1":30,
    "Nom_Gare":"M?con-Ville",
    "INSEE_REG":53,
    "NOM_REG":"Bretagne",
    "INSEE_DEP":22,
    "NOM_DEP":"C?tes-d'Armor"
    }
  },
  {
    "type": "Feature",
    "geometry": {
       "type": "Point",
       "coordinates":  [ -2.763,48.503 ]
    },
    "properties": {
    "FIELD1":31,
    "Nom_Gare":"Saint-Brieuc",
    "INSEE_REG":53,
    "NOM_REG":"Bretagne",
    "INSEE_DEP":22,
    "NOM_DEP":"C?tes-d'Armor"
    }
  },
  {
    "type": "Feature",
    "geometry": {
       "type": "Point",
       "coordinates":  [ 6.026,47.248 ]
    },
    "properties": {
    "FIELD1":32,
    "Nom_Gare":"Besan?on-Viotte",
    "INSEE_REG":27,
    "NOM_REG":"Bourgogne-Franche-Comt?",
    "INSEE_DEP":25,
    "NOM_DEP":"Doubs"
    }
  },
  {
    "type": "Feature",
    "geometry": {
       "type": "Point",
       "coordinates":  [ 6.149,46.856 ]
    },
    "properties": {
    "FIELD1":33,
    "Nom_Gare":"Frasne",
    "INSEE_REG":27,
    "NOM_REG":"Bourgogne-Franche-Comt?",
    "INSEE_DEP":25,
    "NOM_DEP":"Doubs"
    }
  },
  {
    "type": "Feature",
    "geometry": {
       "type": "Point",
       "coordinates":  [ 4.744,44.546 ]
    },
    "properties": {
    "FIELD1":34,
    "Nom_Gare":"Mont?limar",
    "INSEE_REG":84,
    "NOM_REG":"Auvergne-Rh?ne-Alpes",
    "INSEE_DEP":26,
    "NOM_DEP":"Dr?me"
    }
  },
  {
    "type": "Feature",
    "geometry": {
       "type": "Point",
       "coordinates":  [ 4.891,45.065 ]
    },
    "properties": {
    "FIELD1":35,
    "Nom_Gare":"Valence TGV",
    "INSEE_REG":84,
    "NOM_REG":"Auvergne-Rh?ne-Alpes",
    "INSEE_DEP":26,
    "NOM_DEP":"Dr?me"
    }
  },
  {
    "type": "Feature",
    "geometry": {
       "type": "Point",
       "coordinates":  [ 4.891,44.933 ]
    },
    "properties": {
    "FIELD1":36,
    "Nom_Gare":"Valence-Ville",
    "INSEE_REG":84,
    "NOM_REG":"Auvergne-Rh?ne-Alpes",
    "INSEE_DEP":26,
    "NOM_DEP":"Dr?me"
    }
  },
  {
    "type": "Feature",
    "geometry": {
       "type": "Point",
       "coordinates":  [ -4.502,48.391 ]
    },
    "properties": {
    "FIELD1":37,
    "Nom_Gare":"Brest",
    "INSEE_REG":53,
    "NOM_REG":"Bretagne",
    "INSEE_DEP":29,
    "NOM_DEP":"Finist?re"
    }
  },
  {
    "type": "Feature",
    "geometry": {
       "type": "Point",
       "coordinates":  [ -4.253,48.45 ]
    },
    "properties": {
    "FIELD1":38,
    "Nom_Gare":"Landerneau",
    "INSEE_REG":53,
    "NOM_REG":"Bretagne",
    "INSEE_DEP":29,
    "NOM_DEP":"Finist?re"
    }
  },
  {
    "type": "Feature",
    "geometry": {
       "type": "Point",
       "coordinates":  [ -4.094,48.014 ]
    },
    "properties": {
    "FIELD1":39,
    "Nom_Gare":"Quimper",
    "INSEE_REG":53,
    "NOM_REG":"Bretagne",
    "INSEE_DEP":29,
    "NOM_DEP":"Finist?re"
    }
  },
  {
    "type": "Feature",
    "geometry": {
       "type": "Point",
       "coordinates":  [ -3.548,47.884 ]
    },
    "properties": {
    "FIELD1":40,
    "Nom_Gare":"Quimperl?",
    "INSEE_REG":53,
    "NOM_REG":"Bretagne",
    "INSEE_DEP":29,
    "NOM_DEP":"Finist?re"
    }
  },
  {
    "type": "Feature",
    "geometry": {
       "type": "Point",
       "coordinates":  [ -3.791,47.989 ]
    },
    "properties": {
    "FIELD1":41,
    "Nom_Gare":"Rosporden",
    "INSEE_REG":53,
    "NOM_REG":"Bretagne",
    "INSEE_DEP":29,
    "NOM_DEP":"Finist?re"
    }
  },
  {
    "type": "Feature",
    "geometry": {
       "type": "Point",
       "coordinates":  [ -3.833,48.579 ]
    },
    "properties": {
    "FIELD1":42,
    "Nom_Gare":"Morlaix",
    "INSEE_REG":53,
    "NOM_REG":"Bretagne",
    "INSEE_DEP":29,
    "NOM_DEP":"Finist?re"
    }
  },
  {
    "type": "Feature",
    "geometry": {
       "type": "Point",
       "coordinates":  [ 4.386,43.832 ]
    },
    "properties": {
    "FIELD1":43,
    "Nom_Gare":"N?mes",
    "INSEE_REG":76,
    "NOM_REG":"Occitanie",
    "INSEE_DEP":30,
    "NOM_DEP":"Gard"
    }
  },
  {
    "type": "Feature",
    "geometry": {
       "type": "Point",
       "coordinates":  [ 4.37,43.851 ]
    },
    "properties": {
    "FIELD1":44,
    "Nom_Gare":"N?mes-Pont-du-Gard",
    "INSEE_REG":76,
    "NOM_REG":"Occitanie",
    "INSEE_DEP":30,
    "NOM_DEP":"Gard"
    }
  },
  {
    "type": "Feature",
    "geometry": {
       "type": "Point",
       "coordinates":  [ 1.484,43.583 ]
    },
    "properties": {
    "FIELD1":45,
    "Nom_Gare":"Meuse TGV",
    "INSEE_REG":76,
    "NOM_REG":"Occitanie",
    "INSEE_DEP":31,
    "NOM_DEP":"Haute-Garonne"
    }
  },
  {
    "type": "Feature",
    "geometry": {
       "type": "Point",
       "coordinates":  [ 1.447,43.61 ]
    },
    "properties": {
    "FIELD1":46,
    "Nom_Gare":"Toulouse-Matabiau",
    "INSEE_REG":76,
    "NOM_REG":"Occitanie",
    "INSEE_DEP":31,
    "NOM_DEP":"Haute-Garonne"
    }
  },
  {
    "type": "Feature",
    "geometry": {
       "type": "Point",
       "coordinates":  [ -1.17,44.662 ]
    },
    "properties": {
    "FIELD1":47,
    "Nom_Gare":"Arcachon",
    "INSEE_REG":75,
    "NOM_REG":"Nouvelle-Aquitaine",
    "INSEE_DEP":33,
    "NOM_DEP":"Gironde"
    }
  },
  {
    "type": "Feature",
    "geometry": {
       "type": "Point",
       "coordinates":  [ -0.57,44.838 ]
    },
    "properties": {
    "FIELD1":48,
    "Nom_Gare":"Bordeaux-Saint-Jean",
    "INSEE_REG":75,
    "NOM_REG":"Nouvelle-Aquitaine",
    "INSEE_DEP":33,
    "NOM_DEP":"Gironde"
    }
  },
  {
    "type": "Feature",
    "geometry": {
       "type": "Point",
       "coordinates":  [ -0.956,44.65 ]
    },
    "properties": {
    "FIELD1":49,
    "Nom_Gare":"Facture-Biganos",
    "INSEE_REG":75,
    "NOM_REG":"Nouvelle-Aquitaine",
    "INSEE_DEP":33,
    "NOM_DEP":"Gironde"
    }
  },
  {
    "type": "Feature",
    "geometry": {
       "type": "Point",
       "coordinates":  [ -0.24,44.896 ]
    },
    "properties": {
    "FIELD1":50,
    "Nom_Gare":"Libourne",
    "INSEE_REG":75,
    "NOM_REG":"Nouvelle-Aquitaine",
    "INSEE_DEP":33,
    "NOM_DEP":"Gironde"
    }
  },
  {
    "type": "Feature",
    "geometry": {
       "type": "Point",
       "coordinates":  [ -1.133,44.633 ]
    },
    "properties": {
    "FIELD1":51,
    "Nom_Gare":"La Teste",
    "INSEE_REG":75,
    "NOM_REG":"Nouvelle-Aquitaine",
    "INSEE_DEP":33,
    "NOM_DEP":"Gironde"
    }
  },
  {
    "type": "Feature",
    "geometry": {
       "type": "Point",
       "coordinates":  [ 3.483,43.318 ]
    },
    "properties": {
    "FIELD1":52,
    "Nom_Gare":"Agde",
    "INSEE_REG":76,
    "NOM_REG":"Occitanie",
    "INSEE_DEP":34,
    "NOM_DEP":"H?rault"
    }
  },
  {
    "type": "Feature",
    "geometry": {
       "type": "Point",
       "coordinates":  [ 3.236,43.42 ]
    },
    "properties": {
    "FIELD1":53,
    "Nom_Gare":"B?ziers",
    "INSEE_REG":76,
    "NOM_REG":"Occitanie",
    "INSEE_DEP":34,
    "NOM_DEP":"H?rault"
    }
  },
  {
    "type": "Feature",
    "geometry": {
       "type": "Point",
       "coordinates":  [ 3.89,43.603 ]
    },
    "properties": {
    "FIELD1":54,
    "Nom_Gare":"Montpellier-Saint-Roch",
    "INSEE_REG":76,
    "NOM_REG":"Occitanie",
    "INSEE_DEP":34,
    "NOM_DEP":"H?rault"
    }
  },
  {
    "type": "Feature",
    "geometry": {
       "type": "Point",
       "coordinates":  [ 3.924,43.595 ]
    },
    "properties": {
    "FIELD1":55,
    "Nom_Gare":"Montpellier-Sud-de-France",
    "INSEE_REG":76,
    "NOM_REG":"Occitanie",
    "INSEE_DEP":34,
    "NOM_DEP":"H?rault"
    }
  },
  {
    "type": "Feature",
    "geometry": {
       "type": "Point",
       "coordinates":  [ 3.698,43.409 ]
    },
    "properties": {
    "FIELD1":56,
    "Nom_Gare":"S?te",
    "INSEE_REG":76,
    "NOM_REG":"Occitanie",
    "INSEE_DEP":34,
    "NOM_DEP":"H?rault"
    }
  },
  {
    "type": "Feature",
    "geometry": {
       "type": "Point",
       "coordinates":  [ 3.68,43.394 ]
    },
    "properties": {
    "FIELD1":57,
    "Nom_Gare":"TGV Haute-Picardie",
    "INSEE_REG":76,
    "NOM_REG":"Occitanie",
    "INSEE_DEP":34,
    "NOM_DEP":"H?rault"
    }
  },
  {
    "type": "Feature",
    "geometry": {
       "type": "Point",
       "coordinates":  [ -1.738,48.551 ]
    },
    "properties": {
    "FIELD1":58,
    "Nom_Gare":"Dol-de-Bretagne",
    "INSEE_REG":53,
    "NOM_REG":"Bretagne",
    "INSEE_DEP":35,
    "NOM_DEP":"Ille-et-Vilaine"
    }
  },
  {
    "type": "Feature",
    "geometry": {
       "type": "Point",
       "coordinates":  [ -1.704,48.035 ]
    },
    "properties": {
    "FIELD1":59,
    "Nom_Gare":"Plouaret-Tr?gor",
    "INSEE_REG":53,
    "NOM_REG":"Bretagne",
    "INSEE_DEP":35,
    "NOM_DEP":"Ille-et-Vilaine"
    }
  },
  {
    "type": "Feature",
    "geometry": {
       "type": "Point",
       "coordinates":  [ -2.083,47.652 ]
    },
    "properties": {
    "FIELD1":60,
    "Nom_Gare":"Redon",
    "INSEE_REG":53,
    "NOM_REG":"Bretagne",
    "INSEE_DEP":35,
    "NOM_DEP":"Ille-et-Vilaine"
    }
  },
  {
    "type": "Feature",
    "geometry": {
       "type": "Point",
       "coordinates":  [ -1.684,48.11 ]
    },
    "properties": {
    "FIELD1":61,
    "Nom_Gare":"Rennes",
    "INSEE_REG":53,
    "NOM_REG":"Bretagne",
    "INSEE_DEP":35,
    "NOM_DEP":"Ille-et-Vilaine"
    }
  },
  {
    "type": "Feature",
    "geometry": {
       "type": "Point",
       "coordinates":  [ -1.974,48.657 ]
    },
    "properties": {
    "FIELD1":62,
    "Nom_Gare":"Saint-Malo",
    "INSEE_REG":53,
    "NOM_REG":"Bretagne",
    "INSEE_DEP":35,
    "NOM_DEP":"Ille-et-Vilaine"
    }
  },
  {
    "type": "Feature",
    "geometry": {
       "type": "Point",
       "coordinates":  [ -1.218,48.131 ]
    },
    "properties": {
    "FIELD1":63,
    "Nom_Gare":"Vitr?",
    "INSEE_REG":53,
    "NOM_REG":"Bretagne",
    "INSEE_DEP":35,
    "NOM_DEP":"Ille-et-Vilaine"
    }
  },
  {
    "type": "Feature",
    "geometry": {
       "type": "Point",
       "coordinates":  [ 0.71,47.381 ]
    },
    "properties": {
    "FIELD1":64,
    "Nom_Gare":"Lorraine TGV",
    "INSEE_REG":24,
    "NOM_REG":"Centre-Val de Loire",
    "INSEE_DEP":37,
    "NOM_DEP":"Indre-et-Loire"
    }
  },
  {
    "type": "Feature",
    "geometry": {
       "type": "Point",
       "coordinates":  [ 0.761,47.386 ]
    },
    "properties": {
    "FIELD1":65,
    "Nom_Gare":"Saint-Pierre-des-Corps",
    "INSEE_REG":24,
    "NOM_REG":"Centre-Val de Loire",
    "INSEE_DEP":37,
    "NOM_DEP":"Indre-et-Loire"
    }
  },
  {
    "type": "Feature",
    "geometry": {
       "type": "Point",
       "coordinates":  [ 0.696,47.402 ]
    },
    "properties": {
    "FIELD1":66,
    "Nom_Gare":"Tours",
    "INSEE_REG":24,
    "NOM_REG":"Centre-Val de Loire",
    "INSEE_DEP":37,
    "NOM_DEP":"Indre-et-Loire"
    }
  },
  {
    "type": "Feature",
    "geometry": {
       "type": "Point",
       "coordinates":  [ 5.741,45.177 ]
    },
    "properties": {
    "FIELD1":67,
    "Nom_Gare":"Grenoble",
    "INSEE_REG":84,
    "NOM_REG":"Auvergne-Rh?ne-Alpes",
    "INSEE_DEP":38,
    "NOM_DEP":"Is?re"
    }
  },
  {
    "type": "Feature",
    "geometry": {
       "type": "Point",
       "coordinates":  [ 5.792,46.978 ]
    },
    "properties": {
    "FIELD1":68,
    "Nom_Gare":"Mouchard",
    "INSEE_REG":27,
    "NOM_REG":"Bourgogne-Franche-Comt?",
    "INSEE_DEP":39,
    "NOM_DEP":"Jura"
    }
  },
  {
    "type": "Feature",
    "geometry": {
       "type": "Point",
       "coordinates":  [ -1.068,43.709 ]
    },
    "properties": {
    "FIELD1":69,
    "Nom_Gare":"Dax",
    "INSEE_REG":75,
    "NOM_REG":"Nouvelle-Aquitaine",
    "INSEE_DEP":40,
    "NOM_DEP":"Landes"
    }
  },
  {
    "type": "Feature",
    "geometry": {
       "type": "Point",
       "coordinates":  [ 1.036,47.799 ]
    },
    "properties": {
    "FIELD1":70,
    "Nom_Gare":"Vend?me - Villiers-sur-Loir",
    "INSEE_REG":24,
    "NOM_REG":"Centre-Val de Loire",
    "INSEE_DEP":41,
    "NOM_DEP":"Loir-et-Cher"
    }
  },
  {
    "type": "Feature",
    "geometry": {
       "type": "Point",
       "coordinates":  [ 4.36,45.429 ]
    },
    "properties": {
    "FIELD1":71,
    "Nom_Gare":"Montauban-Ville-Bourbon",
    "INSEE_REG":84,
    "NOM_REG":"Auvergne-Rh?ne-Alpes",
    "INSEE_DEP":42,
    "NOM_DEP":"Loire"
    }
  },
  {
    "type": "Feature",
    "geometry": {
       "type": "Point",
       "coordinates":  [ 4.4,45.443 ]
    },
    "properties": {
    "FIELD1":72,
    "Nom_Gare":"Saint-?tienne-Ch?teaucreux",
    "INSEE_REG":84,
    "NOM_REG":"Auvergne-Rh?ne-Alpes",
    "INSEE_DEP":42,
    "NOM_DEP":"Loire"
    }
  },
  {
    "type": "Feature",
    "geometry": {
       "type": "Point",
       "coordinates":  [ -1.184,47.366 ]
    },
    "properties": {
    "FIELD1":73,
    "Nom_Gare":"Ancenis",
    "INSEE_REG":52,
    "NOM_REG":"Pays de la Loire",
    "INSEE_DEP":44,
    "NOM_DEP":"Loire-Atlantique"
    }
  },
  {
    "type": "Feature",
    "geometry": {
       "type": "Point",
       "coordinates":  [ -2.371,47.285 ]
    },
    "properties": {
    "FIELD1":74,
    "Nom_Gare":"La Baule-Escoublac",
    "INSEE_REG":52,
    "NOM_REG":"Pays de la Loire",
    "INSEE_DEP":44,
    "NOM_DEP":"Loire-Atlantique"
    }
  },
  {
    "type": "Feature",
    "geometry": {
       "type": "Point",
       "coordinates":  [ -2.51,47.287 ]
    },
    "properties": {
    "FIELD1":75,
    "Nom_Gare":"Le Croisic",
    "INSEE_REG":52,
    "NOM_REG":"Pays de la Loire",
    "INSEE_DEP":44,
    "NOM_DEP":"Loire-Atlantique"
    }
  },
  {
    "type": "Feature",
    "geometry": {
       "type": "Point",
       "coordinates":  [ -1.529,47.259 ]
    },
    "properties": {
    "FIELD1":76,
    "Nom_Gare":"Nantes",
    "INSEE_REG":52,
    "NOM_REG":"Pays de la Loire",
    "INSEE_DEP":44,
    "NOM_DEP":"Loire-Atlantique"
    }
  },
  {
    "type": "Feature",
    "geometry": {
       "type": "Point",
       "coordinates":  [ -2.314,47.252 ]
    },
    "properties": {
    "FIELD1":77,
    "Nom_Gare":"Pornichet",
    "INSEE_REG":52,
    "NOM_REG":"Pays de la Loire",
    "INSEE_DEP":44,
    "NOM_DEP":"Loire-Atlantique"
    }
  },
  {
    "type": "Feature",
    "geometry": {
       "type": "Point",
       "coordinates":  [ -2.439,47.277 ]
    },
    "properties": {
    "FIELD1":78,
    "Nom_Gare":"Le Pouliguen",
    "INSEE_REG":52,
    "NOM_REG":"Pays de la Loire",
    "INSEE_DEP":44,
    "NOM_DEP":"Loire-Atlantique"
    }
  },
  {
    "type": "Feature",
    "geometry": {
       "type": "Point",
       "coordinates":  [ -2.184,47.299 ]
    },
    "properties": {
    "FIELD1":79,
    "Nom_Gare":"Saint-Nazaire",
    "INSEE_REG":52,
    "NOM_REG":"Pays de la Loire",
    "INSEE_DEP":44,
    "NOM_DEP":"Loire-Atlantique"
    }
  },
  {
    "type": "Feature",
    "geometry": {
       "type": "Point",
       "coordinates":  [ 0.618,44.206 ]
    },
    "properties": {
    "FIELD1":80,
    "Nom_Gare":"Agen",
    "INSEE_REG":75,
    "NOM_REG":"Nouvelle-Aquitaine",
    "INSEE_DEP":47,
    "NOM_DEP":"Lot-et-Garonne"
    }
  },
  {
    "type": "Feature",
    "geometry": {
       "type": "Point",
       "coordinates":  [ -0.552,47.473 ]
    },
    "properties": {
    "FIELD1":81,
    "Nom_Gare":"Angers-Saint-Laud",
    "INSEE_REG":52,
    "NOM_REG":"Pays de la Loire",
    "INSEE_DEP":49,
    "NOM_DEP":"Maine-et-Loire"
    }
  },
  {
    "type": "Feature",
    "geometry": {
       "type": "Point",
       "coordinates":  [ -0.073,47.263 ]
    },
    "properties": {
    "FIELD1":82,
    "Nom_Gare":"Saumur",
    "INSEE_REG":52,
    "NOM_REG":"Pays de la Loire",
    "INSEE_DEP":49,
    "NOM_DEP":"Maine-et-Loire"
    }
  },
  {
    "type": "Feature",
    "geometry": {
       "type": "Point",
       "coordinates":  [ 4.362,48.956 ]
    },
    "properties": {
    "FIELD1":83,
    "Nom_Gare":"Ch?lons-en-Champagne",
    "INSEE_REG":44,
    "NOM_REG":"Grand Est",
    "INSEE_DEP":51,
    "NOM_DEP":"Marne"
    }
  },
  {
    "type": "Feature",
    "geometry": {
       "type": "Point",
       "coordinates":  [ 4.041,49.245 ]
    },
    "properties": {
    "FIELD1":84,
    "Nom_Gare":"Reims",
    "INSEE_REG":44,
    "NOM_REG":"Grand Est",
    "INSEE_DEP":51,
    "NOM_DEP":"Marne"
    }
  },
  {
    "type": "Feature",
    "geometry": {
       "type": "Point",
       "coordinates":  [ 4.597,48.73 ]
    },
    "properties": {
    "FIELD1":85,
    "Nom_Gare":"Vitry-le-Fran?ois",
    "INSEE_REG":44,
    "NOM_REG":"Grand Est",
    "INSEE_DEP":51,
    "NOM_DEP":"Marne"
    }
  },
  {
    "type": "Feature",
    "geometry": {
       "type": "Point",
       "coordinates":  [ -0.76,48.077 ]
    },
    "properties": {
    "FIELD1":86,
    "Nom_Gare":"Laval",
    "INSEE_REG":52,
    "NOM_REG":"Pays de la Loire",
    "INSEE_DEP":53,
    "NOM_DEP":"Mayenne"
    }
  },
  {
    "type": "Feature",
    "geometry": {
       "type": "Point",
       "coordinates":  [ 6.483,48.585 ]
    },
    "properties": {
    "FIELD1":87,
    "Nom_Gare":"Lun?ville",
    "INSEE_REG":44,
    "NOM_REG":"Grand Est",
    "INSEE_DEP":54,
    "NOM_DEP":"Meurthe-et-Moselle"
    }
  },
  {
    "type": "Feature",
    "geometry": {
       "type": "Point",
       "coordinates":  [ 6.224,48.703 ]
    },
    "properties": {
    "FIELD1":88,
    "Nom_Gare":"Nancy-Ville",
    "INSEE_REG":44,
    "NOM_REG":"Grand Est",
    "INSEE_DEP":54,
    "NOM_DEP":"Meurthe-et-Moselle"
    }
  },
  {
    "type": "Feature",
    "geometry": {
       "type": "Point",
       "coordinates":  [ 5.194,48.756 ]
    },
    "properties": {
    "FIELD1":89,
    "Nom_Gare":"Bar-le-Duc",
    "INSEE_REG":44,
    "NOM_REG":"Grand Est",
    "INSEE_DEP":55,
    "NOM_DEP":"Meuse"
    }
  },
  {
    "type": "Feature",
    "geometry": {
       "type": "Point",
       "coordinates":  [ -2.988,47.663 ]
    },
    "properties": {
    "FIELD1":90,
    "Nom_Gare":"Auray",
    "INSEE_REG":53,
    "NOM_REG":"Bretagne",
    "INSEE_DEP":56,
    "NOM_DEP":"Morbihan"
    }
  },
  {
    "type": "Feature",
    "geometry": {
       "type": "Point",
       "coordinates":  [ -3.384,47.759 ]
    },
    "properties": {
    "FIELD1":91,
    "Nom_Gare":"Lorient",
    "INSEE_REG":53,
    "NOM_REG":"Bretagne",
    "INSEE_DEP":56,
    "NOM_DEP":"Morbihan"
    }
  },
  {
    "type": "Feature",
    "geometry": {
       "type": "Point",
       "coordinates":  [ -2.773,47.636 ]
    },
    "properties": {
    "FIELD1":92,
    "Nom_Gare":"Vannes",
    "INSEE_REG":53,
    "NOM_REG":"Bretagne",
    "INSEE_DEP":56,
    "NOM_DEP":"Morbihan"
    }
  },
  {
    "type": "Feature",
    "geometry": {
       "type": "Point",
       "coordinates":  [ 6.895,49.18 ]
    },
    "properties": {
    "FIELD1":93,
    "Nom_Gare":"Forbach",
    "INSEE_REG":44,
    "NOM_REG":"Grand Est",
    "INSEE_DEP":57,
    "NOM_DEP":"Moselle"
    }
  },
  {
    "type": "Feature",
    "geometry": {
       "type": "Point",
       "coordinates":  [ 6.155,49.101 ]
    },
    "properties": {
    "FIELD1":94,
    "Nom_Gare":"Metz-Ville",
    "INSEE_REG":44,
    "NOM_REG":"Grand Est",
    "INSEE_DEP":57,
    "NOM_DEP":"Moselle"
    }
  },
  {
    "type": "Feature",
    "geometry": {
       "type": "Point",
       "coordinates":  [ 7.052,48.735 ]
    },
    "properties": {
    "FIELD1":95,
    "Nom_Gare":"Sarrebourg",
    "INSEE_REG":44,
    "NOM_REG":"Grand Est",
    "INSEE_DEP":57,
    "NOM_DEP":"Moselle"
    }
  },
  {
    "type": "Feature",
    "geometry": {
       "type": "Point",
       "coordinates":  [ 6.144,49.362 ]
    },
    "properties": {
    "FIELD1":96,
    "Nom_Gare":"Thionville",
    "INSEE_REG":44,
    "NOM_REG":"Grand Est",
    "INSEE_DEP":57,
    "NOM_DEP":"Moselle"
    }
  },
  {
    "type": "Feature",
    "geometry": {
       "type": "Point",
       "coordinates":  [ 3.135,50.678 ]
    },
    "properties": {
    "FIELD1":97,
    "Nom_Gare":"Croix - Wasquehal",
    "INSEE_REG":32,
    "NOM_REG":"Hauts-de-France",
    "INSEE_DEP":59,
    "NOM_DEP":"Nord"
    }
  },
  {
    "type": "Feature",
    "geometry": {
       "type": "Point",
       "coordinates":  [ 3.09,50.39 ]
    },
    "properties": {
    "FIELD1":98,
    "Nom_Gare":"Douai",
    "INSEE_REG":32,
    "NOM_REG":"Hauts-de-France",
    "INSEE_DEP":59,
    "NOM_DEP":"Nord"
    }
  },
  {
    "type": "Feature",
    "geometry": {
       "type": "Point",
       "coordinates":  [ 2.389,51.046 ]
    },
    "properties": {
    "FIELD1":99,
    "Nom_Gare":"Dunkerque",
    "INSEE_REG":32,
    "NOM_REG":"Hauts-de-France",
    "INSEE_DEP":59,
    "NOM_DEP":"Nord"
    }
  },
  {
    "type": "Feature",
    "geometry": {
       "type": "Point",
       "coordinates":  [ 2.726,50.738 ]
    },
    "properties": {
    "FIELD1":100,
    "Nom_Gare":"Hazebrouck",
    "INSEE_REG":32,
    "NOM_REG":"Hauts-de-France",
    "INSEE_DEP":59,
    "NOM_DEP":"Nord"
    }
  },
  {
    "type": "Feature",
    "geometry": {
       "type": "Point",
       "coordinates":  [ 3.074,50.641 ]
    },
    "properties": {
    "FIELD1":101,
    "Nom_Gare":"Lille-Europe",
    "INSEE_REG":32,
    "NOM_REG":"Hauts-de-France",
    "INSEE_DEP":59,
    "NOM_DEP":"Nord"
    }
  },
  {
    "type": "Feature",
    "geometry": {
       "type": "Point",
       "coordinates":  [ 3.056,50.628 ]
    },
    "properties": {
    "FIELD1":102,
    "Nom_Gare":"Lille-Flandres",
    "INSEE_REG":32,
    "NOM_REG":"Hauts-de-France",
    "INSEE_DEP":59,
    "NOM_DEP":"Nord"
    }
  },
  {
    "type": "Feature",
    "geometry": {
       "type": "Point",
       "coordinates":  [ 3.17,50.701 ]
    },
    "properties": {
    "FIELD1":103,
    "Nom_Gare":"Roubaix",
    "INSEE_REG":32,
    "NOM_REG":"Hauts-de-France",
    "INSEE_DEP":59,
    "NOM_DEP":"Nord"
    }
  },
  {
    "type": "Feature",
    "geometry": {
       "type": "Point",
       "coordinates":  [ 3.141,50.718 ]
    },
    "properties": {
    "FIELD1":104,
    "Nom_Gare":"Tourcoing",
    "INSEE_REG":32,
    "NOM_REG":"Hauts-de-France",
    "INSEE_DEP":59,
    "NOM_DEP":"Nord"
    }
  },
  {
    "type": "Feature",
    "geometry": {
       "type": "Point",
       "coordinates":  [ 3.517,50.342 ]
    },
    "properties": {
    "FIELD1":105,
    "Nom_Gare":"Valenciennes",
    "INSEE_REG":32,
    "NOM_REG":"Hauts-de-France",
    "INSEE_DEP":59,
    "NOM_DEP":"Nord"
    }
  },
  {
    "type": "Feature",
    "geometry": {
       "type": "Point",
       "coordinates":  [ 2.707,49.607 ]
    },
    "properties": {
    "FIELD1":106,
    "Nom_Gare":"Boulogne-Ville",
    "INSEE_REG":32,
    "NOM_REG":"Hauts-de-France",
    "INSEE_DEP":60,
    "NOM_DEP":"Oise"
    }
  },
  {
    "type": "Feature",
    "geometry": {
       "type": "Point",
       "coordinates":  [ 2.778,50.29 ]
    },
    "properties": {
    "FIELD1":107,
    "Nom_Gare":"Arras",
    "INSEE_REG":32,
    "NOM_REG":"Hauts-de-France",
    "INSEE_DEP":62,
    "NOM_DEP":"Pas-de-Calais"
    }
  },
  {
    "type": "Feature",
    "geometry": {
       "type": "Point",
       "coordinates":  [ 2.636,50.517 ]
    },
    "properties": {
    "FIELD1":108,
    "Nom_Gare":"B?thune",
    "INSEE_REG":32,
    "NOM_REG":"Hauts-de-France",
    "INSEE_DEP":62,
    "NOM_DEP":"Pas-de-Calais"
    }
  },
  {
    "type": "Feature",
    "geometry": {
       "type": "Point",
       "coordinates":  [ 1.85,50.935 ]
    },
    "properties": {
    "FIELD1":109,
    "Nom_Gare":"Calais - Fr?thun",
    "INSEE_REG":32,
    "NOM_REG":"Hauts-de-France",
    "INSEE_DEP":62,
    "NOM_DEP":"Pas-de-Calais"
    }
  },
  {
    "type": "Feature",
    "geometry": {
       "type": "Point",
       "coordinates":  [ 3.063,50.43 ]
    },
    "properties": {
    "FIELD1":110,
    "Nom_Gare":"Calais-Ville",
    "INSEE_REG":32,
    "NOM_REG":"Hauts-de-France",
    "INSEE_DEP":62,
    "NOM_DEP":"Pas-de-Calais"
    }
  },
  {
    "type": "Feature",
    "geometry": {
       "type": "Point",
       "coordinates":  [ 1.589,50.525 ]
    },
    "properties": {
    "FIELD1":111,
    "Nom_Gare":"?taples - Le Touquet",
    "INSEE_REG":32,
    "NOM_REG":"Hauts-de-France",
    "INSEE_DEP":62,
    "NOM_DEP":"Pas-de-Calais"
    }
  },
  {
    "type": "Feature",
    "geometry": {
       "type": "Point",
       "coordinates":  [ 3.027,50.419 ]
    },
    "properties": {
    "FIELD1":112,
    "Nom_Gare":"Lens",
    "INSEE_REG":32,
    "NOM_REG":"Hauts-de-France",
    "INSEE_DEP":62,
    "NOM_DEP":"Pas-de-Calais"
    }
  },
  {
    "type": "Feature",
    "geometry": {
       "type": "Point",
       "coordinates":  [ 1.619,50.414 ]
    },
    "properties": {
    "FIELD1":113,
    "Nom_Gare":"Rang-du-Fliers - Verton",
    "INSEE_REG":32,
    "NOM_REG":"Hauts-de-France",
    "INSEE_DEP":62,
    "NOM_DEP":"Pas-de-Calais"
    }
  },
  {
    "type": "Feature",
    "geometry": {
       "type": "Point",
       "coordinates":  [ -1.443,43.503 ]
    },
    "properties": {
    "FIELD1":114,
    "Nom_Gare":"Bayonne",
    "INSEE_REG":75,
    "NOM_REG":"Nouvelle-Aquitaine",
    "INSEE_DEP":64,
    "NOM_DEP":"Pyr?n?es-Atlantiques"
    }
  },
  {
    "type": "Feature",
    "geometry": {
       "type": "Point",
       "coordinates":  [ -1.555,43.472 ]
    },
    "properties": {
    "FIELD1":115,
    "Nom_Gare":"Biarritz",
    "INSEE_REG":75,
    "NOM_REG":"Nouvelle-Aquitaine",
    "INSEE_DEP":64,
    "NOM_DEP":"Pyr?n?es-Atlantiques"
    }
  },
  {
    "type": "Feature",
    "geometry": {
       "type": "Point",
       "coordinates":  [ -1.774,43.355 ]
    },
    "properties": {
    "FIELD1":116,
    "Nom_Gare":"Hendaye",
    "INSEE_REG":75,
    "NOM_REG":"Nouvelle-Aquitaine",
    "INSEE_DEP":64,
    "NOM_DEP":"Pyr?n?es-Atlantiques"
    }
  },
  {
    "type": "Feature",
    "geometry": {
       "type": "Point",
       "coordinates":  [ -0.768,43.491 ]
    },
    "properties": {
    "FIELD1":117,
    "Nom_Gare":"Orthez",
    "INSEE_REG":75,
    "NOM_REG":"Nouvelle-Aquitaine",
    "INSEE_DEP":64,
    "NOM_DEP":"Pyr?n?es-Atlantiques"
    }
  },
  {
    "type": "Feature",
    "geometry": {
       "type": "Point",
       "coordinates":  [ -0.35,43.295 ]
    },
    "properties": {
    "FIELD1":118,
    "Nom_Gare":"Pau",
    "INSEE_REG":75,
    "NOM_REG":"Nouvelle-Aquitaine",
    "INSEE_DEP":64,
    "NOM_DEP":"Pyr?n?es-Atlantiques"
    }
  },
  {
    "type": "Feature",
    "geometry": {
       "type": "Point",
       "coordinates":  [ -1.676,43.381 ]
    },
    "properties": {
    "FIELD1":119,
    "Nom_Gare":"Saint-Jean-de-Luz - Ciboure",
    "INSEE_REG":75,
    "NOM_REG":"Nouvelle-Aquitaine",
    "INSEE_DEP":64,
    "NOM_DEP":"Pyr?n?es-Atlantiques"
    }
  },
  {
    "type": "Feature",
    "geometry": {
       "type": "Point",
       "coordinates":  [ -0.049,43.095 ]
    },
    "properties": {
    "FIELD1":120,
    "Nom_Gare":"Lourdes",
    "INSEE_REG":76,
    "NOM_REG":"Occitanie",
    "INSEE_DEP":65,
    "NOM_DEP":"Hautes-Pyr?n?es"
    }
  },
  {
    "type": "Feature",
    "geometry": {
       "type": "Point",
       "coordinates":  [ 0.071,43.232 ]
    },
    "properties": {
    "FIELD1":121,
    "Nom_Gare":"Tarbes",
    "INSEE_REG":76,
    "NOM_REG":"Occitanie",
    "INSEE_DEP":65,
    "NOM_DEP":"Hautes-Pyr?n?es"
    }
  },
  {
    "type": "Feature",
    "geometry": {
       "type": "Point",
       "coordinates":  [ 2.888,42.697 ]
    },
    "properties": {
    "FIELD1":122,
    "Nom_Gare":"Perpignan",
    "INSEE_REG":76,
    "NOM_REG":"Occitanie",
    "INSEE_DEP":66,
    "NOM_DEP":"Pyr?n?es-Orientales"
    }
  },
  {
    "type": "Feature",
    "geometry": {
       "type": "Point",
       "coordinates":  [ 7.359,48.744 ]
    },
    "properties": {
    "FIELD1":123,
    "Nom_Gare":"Saverne",
    "INSEE_REG":44,
    "NOM_REG":"Grand Est",
    "INSEE_DEP":67,
    "NOM_DEP":"Bas-Rhin"
    }
  },
  {
    "type": "Feature",
    "geometry": {
       "type": "Point",
       "coordinates":  [ 7.441,48.265 ]
    },
    "properties": {
    "FIELD1":124,
    "Nom_Gare":"S?lestat",
    "INSEE_REG":44,
    "NOM_REG":"Grand Est",
    "INSEE_DEP":67,
    "NOM_DEP":"Bas-Rhin"
    }
  },
  {
    "type": "Feature",
    "geometry": {
       "type": "Point",
       "coordinates":  [ 7.76,48.561 ]
    },
    "properties": {
    "FIELD1":125,
    "Nom_Gare":"Strasbourg-Ville",
    "INSEE_REG":44,
    "NOM_REG":"Grand Est",
    "INSEE_DEP":67,
    "NOM_DEP":"Bas-Rhin"
    }
  },
  {
    "type": "Feature",
    "geometry": {
       "type": "Point",
       "coordinates":  [ 7.361,48.077 ]
    },
    "properties": {
    "FIELD1":126,
    "Nom_Gare":"Colmar",
    "INSEE_REG":44,
    "NOM_REG":"Grand Est",
    "INSEE_DEP":68,
    "NOM_DEP":"Haut-Rhin"
    }
  },
  {
    "type": "Feature",
    "geometry": {
       "type": "Point",
       "coordinates":  [ 7.34,47.746 ]
    },
    "properties": {
    "FIELD1":127,
    "Nom_Gare":"Mulhouse-Ville",
    "INSEE_REG":44,
    "NOM_REG":"Grand Est",
    "INSEE_DEP":68,
    "NOM_DEP":"Haut-Rhin"
    }
  },
  {
    "type": "Feature",
    "geometry": {
       "type": "Point",
       "coordinates":  [ 4.706,45.985 ]
    },
    "properties": {
    "FIELD1":128,
    "Nom_Gare":"Besan?on Franche-Comt? TGV",
    "INSEE_REG":84,
    "NOM_REG":"Auvergne-Rh?ne-Alpes",
    "INSEE_DEP":69,
    "NOM_DEP":"Rh?ne"
    }
  },
  {
    "type": "Feature",
    "geometry": {
       "type": "Point",
       "coordinates":  [ 4.841,45.759 ]
    },
    "properties": {
    "FIELD1":129,
    "Nom_Gare":"Lyon-Part-Dieu",
    "INSEE_REG":84,
    "NOM_REG":"Auvergne-Rh?ne-Alpes",
    "INSEE_DEP":69,
    "NOM_DEP":"Rh?ne"
    }
  },
  {
    "type": "Feature",
    "geometry": {
       "type": "Point",
       "coordinates":  [ 4.828,45.749 ]
    },
    "properties": {
    "FIELD1":130,
    "Nom_Gare":"Lyon-Perrache",
    "INSEE_REG":84,
    "NOM_REG":"Auvergne-Rh?ne-Alpes",
    "INSEE_DEP":69,
    "NOM_DEP":"Rh?ne"
    }
  },
  {
    "type": "Feature",
    "geometry": {
       "type": "Point",
       "coordinates":  [ 4.828,45.758 ]
    },
    "properties": {
    "FIELD1":131,
    "Nom_Gare":"Lyon-Saint-Exup?ry TGV",
    "INSEE_REG":84,
    "NOM_REG":"Auvergne-Rh?ne-Alpes",
    "INSEE_DEP":69,
    "NOM_DEP":"Rh?ne"
    }
  },
  {
    "type": "Feature",
    "geometry": {
       "type": "Point",
       "coordinates":  [ 4.621,45.888 ]
    },
    "properties": {
    "FIELD1":132,
    "Nom_Gare":"Marne-la-Vall?e - Chessy",
    "INSEE_REG":84,
    "NOM_REG":"Auvergne-Rh?ne-Alpes",
    "INSEE_DEP":69,
    "NOM_DEP":"Rh?ne"
    }
  },
  {
    "type": "Feature",
    "geometry": {
       "type": "Point",
       "coordinates":  [ 4.804,45.78 ]
    },
    "properties": {
    "FIELD1":133,
    "Nom_Gare":"Paris-Gare-de-Lyon",
    "INSEE_REG":84,
    "NOM_REG":"Auvergne-Rh?ne-Alpes",
    "INSEE_DEP":69,
    "NOM_DEP":"Rh?ne"
    }
  },
  {
    "type": "Feature",
    "geometry": {
       "type": "Point",
       "coordinates":  [ 5.589,47.439 ]
    },
    "properties": {
    "FIELD1":134,
    "Nom_Gare":"Dole-Ville",
    "INSEE_REG":27,
    "NOM_REG":"Bourgogne-Franche-Comt?",
    "INSEE_DEP":70,
    "NOM_DEP":"Haute-Sa?ne"
    }
  },
  {
    "type": "Feature",
    "geometry": {
       "type": "Point",
       "coordinates":  [ 4.841,46.789 ]
    },
    "properties": {
    "FIELD1":135,
    "Nom_Gare":"Chalon-sur-Sa?ne",
    "INSEE_REG":27,
    "NOM_REG":"Bourgogne-Franche-Comt?",
    "INSEE_DEP":71,
    "NOM_DEP":"Sa?ne-et-Loire"
    }
  },
  {
    "type": "Feature",
    "geometry": {
       "type": "Point",
       "coordinates":  [ 4.377,46.669 ]
    },
    "properties": {
    "FIELD1":136,
    "Nom_Gare":"Le Creusot - Montceau - Montchanin",
    "INSEE_REG":27,
    "NOM_REG":"Bourgogne-Franche-Comt?",
    "INSEE_DEP":71,
    "NOM_DEP":"Sa?ne-et-Loire"
    }
  },
  {
    "type": "Feature",
    "geometry": {
       "type": "Point",
       "coordinates":  [ 4.784,46.277 ]
    },
    "properties": {
    "FIELD1":137,
    "Nom_Gare":"M?con-Loch? TGV",
    "INSEE_REG":27,
    "NOM_REG":"Bourgogne-Franche-Comt?",
    "INSEE_DEP":71,
    "NOM_DEP":"Sa?ne-et-Loire"
    }
  },
  {
    "type": "Feature",
    "geometry": {
       "type": "Point",
       "coordinates":  [ 0.192,47.999 ]
    },
    "properties": {
    "FIELD1":138,
    "Nom_Gare":"Le Mans",
    "INSEE_REG":52,
    "NOM_REG":"Pays de la Loire",
    "INSEE_DEP":72,
    "NOM_DEP":"Sarthe"
    }
  },
  {
    "type": "Feature",
    "geometry": {
       "type": "Point",
       "coordinates":  [ -0.329,47.837 ]
    },
    "properties": {
    "FIELD1":139,
    "Nom_Gare":"Sabl?-sur-Sarthe",
    "INSEE_REG":52,
    "NOM_REG":"Pays de la Loire",
    "INSEE_DEP":72,
    "NOM_DEP":"Sarthe"
    }
  },
  {
    "type": "Feature",
    "geometry": {
       "type": "Point",
       "coordinates":  [ 6.606,45.573 ]
    },
    "properties": {
    "FIELD1":140,
    "Nom_Gare":"Aime-La Plagne",
    "INSEE_REG":84,
    "NOM_REG":"Auvergne-Rh?ne-Alpes",
    "INSEE_DEP":73,
    "NOM_DEP":"Savoie"
    }
  },
  {
    "type": "Feature",
    "geometry": {
       "type": "Point",
       "coordinates":  [ 5.919,45.69 ]
    },
    "properties": {
    "FIELD1":141,
    "Nom_Gare":"Aix-les-Bains-Le Revard",
    "INSEE_REG":84,
    "NOM_REG":"Auvergne-Rh?ne-Alpes",
    "INSEE_DEP":73,
    "NOM_DEP":"Savoie"
    }
  },
  {
    "type": "Feature",
    "geometry": {
       "type": "Point",
       "coordinates":  [ 6.384,45.659 ]
    },
    "properties": {
    "FIELD1":142,
    "Nom_Gare":"Albertville",
    "INSEE_REG":84,
    "NOM_REG":"Auvergne-Rh?ne-Alpes",
    "INSEE_DEP":73,
    "NOM_DEP":"Savoie"
    }
  },
  {
    "type": "Feature",
    "geometry": {
       "type": "Point",
       "coordinates":  [ 6.828,45.573 ]
    },
    "properties": {
    "FIELD1":143,
    "Nom_Gare":"Bourg-Saint-Maurice",
    "INSEE_REG":84,
    "NOM_REG":"Auvergne-Rh?ne-Alpes",
    "INSEE_DEP":73,
    "NOM_DEP":"Savoie"
    }
  },
  {
    "type": "Feature",
    "geometry": {
       "type": "Point",
       "coordinates":  [ 5.975,45.559 ]
    },
    "properties": {
    "FIELD1":144,
    "Nom_Gare":"Chamb?ry - Challes-les-Eaux",
    "INSEE_REG":84,
    "NOM_REG":"Auvergne-Rh?ne-Alpes",
    "INSEE_DEP":73,
    "NOM_DEP":"Savoie"
    }
  },
  {
    "type": "Feature",
    "geometry": {
       "type": "Point",
       "coordinates":  [ 6.736,45.576 ]
    },
    "properties": {
    "FIELD1":145,
    "Nom_Gare":"Landry",
    "INSEE_REG":84,
    "NOM_REG":"Auvergne-Rh?ne-Alpes",
    "INSEE_DEP":73,
    "NOM_DEP":"Savoie"
    }
  },
  {
    "type": "Feature",
    "geometry": {
       "type": "Point",
       "coordinates":  [ 6.671,45.201 ]
    },
    "properties": {
    "FIELD1":146,
    "Nom_Gare":"Modane",
    "INSEE_REG":84,
    "NOM_REG":"Auvergne-Rh?ne-Alpes",
    "INSEE_DEP":73,
    "NOM_DEP":"Savoie"
    }
  },
  {
    "type": "Feature",
    "geometry": {
       "type": "Point",
       "coordinates":  [ 6.567,45.452 ]
    },
    "properties": {
    "FIELD1":147,
    "Nom_Gare":"Mo?tiers - Salins - Brides-les-Bains",
    "INSEE_REG":84,
    "NOM_REG":"Auvergne-Rh?ne-Alpes",
    "INSEE_DEP":73,
    "NOM_DEP":"Savoie"
    }
  },
  {
    "type": "Feature",
    "geometry": {
       "type": "Point",
       "coordinates":  [ 6.304,45.356 ]
    },
    "properties": {
    "FIELD1":148,
    "Nom_Gare":"Saint-Avre - La Chambre",
    "INSEE_REG":84,
    "NOM_REG":"Auvergne-Rh?ne-Alpes",
    "INSEE_DEP":73,
    "NOM_DEP":"Savoie"
    }
  },
  {
    "type": "Feature",
    "geometry": {
       "type": "Point",
       "coordinates":  [ 6.352,45.272 ]
    },
    "properties": {
    "FIELD1":149,
    "Nom_Gare":"Saint-Jean-de-Maurienne - Vall?e de l'Arvan",
    "INSEE_REG":84,
    "NOM_REG":"Auvergne-Rh?ne-Alpes",
    "INSEE_DEP":73,
    "NOM_DEP":"Savoie"
    }
  },
  {
    "type": "Feature",
    "geometry": {
       "type": "Point",
       "coordinates":  [ 6.119,45.898 ]
    },
    "properties": {
    "FIELD1":150,
    "Nom_Gare":"Annecy",
    "INSEE_REG":84,
    "NOM_REG":"Auvergne-Rh?ne-Alpes",
    "INSEE_DEP":74,
    "NOM_DEP":"Haute-Savoie"
    }
  },
  {
    "type": "Feature",
    "geometry": {
       "type": "Point",
       "coordinates":  [ 6.242,46.185 ]
    },
    "properties": {
    "FIELD1":151,
    "Nom_Gare":"Annemasse",
    "INSEE_REG":84,
    "NOM_REG":"Auvergne-Rh?ne-Alpes",
    "INSEE_DEP":74,
    "NOM_DEP":"Haute-Savoie"
    }
  },
  {
    "type": "Feature",
    "geometry": {
       "type": "Point",
       "coordinates":  [ 6.602,46.398 ]
    },
    "properties": {
    "FIELD1":152,
    "Nom_Gare":"?vian-les-Bains",
    "INSEE_REG":84,
    "NOM_REG":"Auvergne-Rh?ne-Alpes",
    "INSEE_DEP":74,
    "NOM_DEP":"Haute-Savoie"
    }
  },
  {
    "type": "Feature",
    "geometry": {
       "type": "Point",
       "coordinates":  [ 6.682,45.868 ]
    },
    "properties": {
    "FIELD1":153,
    "Nom_Gare":"Saint-Gervais-les-Bains-Le Fayet",
    "INSEE_REG":84,
    "NOM_REG":"Auvergne-Rh?ne-Alpes",
    "INSEE_DEP":74,
    "NOM_DEP":"Haute-Savoie"
    }
  },
  {
    "type": "Feature",
    "geometry": {
       "type": "Point",
       "coordinates":  [ 6.643,45.901 ]
    },
    "properties": {
    "FIELD1":154,
    "Nom_Gare":"Sallanches - Combloux - Meg?ve",
    "INSEE_REG":84,
    "NOM_REG":"Auvergne-Rh?ne-Alpes",
    "INSEE_DEP":74,
    "NOM_DEP":"Haute-Savoie"
    }
  },
  {
    "type": "Feature",
    "geometry": {
       "type": "Point",
       "coordinates":  [ 6.485,46.374 ]
    },
    "properties": {
    "FIELD1":155,
    "Nom_Gare":"Thonon-les-Bains",
    "INSEE_REG":84,
    "NOM_REG":"Auvergne-Rh?ne-Alpes",
    "INSEE_DEP":74,
    "NOM_DEP":"Haute-Savoie"
    }
  },
  {
    "type": "Feature",
    "geometry": {
       "type": "Point",
       "coordinates":  [ 2.395,48.871 ]
    },
    "properties": {
    "FIELD1":156,
    "Nom_Gare":"Paris-Est",
    "INSEE_REG":11,
    "NOM_REG":"?le-de-France",
    "INSEE_DEP":75,
    "NOM_DEP":"Paris"
    }
  },
  {
    "type": "Feature",
    "geometry": {
       "type": "Point",
       "coordinates":  [ 2.317,48.838 ]
    },
    "properties": {
    "FIELD1":157,
    "Nom_Gare":"Paris-Montparnasse",
    "INSEE_REG":11,
    "NOM_REG":"?le-de-France",
    "INSEE_DEP":75,
    "NOM_DEP":"Paris"
    }
  },
  {
    "type": "Feature",
    "geometry": {
       "type": "Point",
       "coordinates":  [ 2.356,48.881 ]
    },
    "properties": {
    "FIELD1":158,
    "Nom_Gare":"Paris-Nord",
    "INSEE_REG":11,
    "NOM_REG":"?le-de-France",
    "INSEE_DEP":75,
    "NOM_DEP":"Paris"
    }
  },
  {
    "type": "Feature",
    "geometry": {
       "type": "Point",
       "coordinates":  [ 0.174,49.505 ]
    },
    "properties": {
    "FIELD1":159,
    "Nom_Gare":"Le Havre",
    "INSEE_REG":28,
    "NOM_REG":"Normandie",
    "INSEE_DEP":76,
    "NOM_DEP":"Seine-Maritime"
    }
  },
  {
    "type": "Feature",
    "geometry": {
       "type": "Point",
       "coordinates":  [ 2.571,49.006 ]
    },
    "properties": {
    "FIELD1":160,
    "Nom_Gare":"A?roport Charles-de-Gaulle TGV\n",
    "INSEE_REG":11,
    "NOM_REG":"?le-de-France",
    "INSEE_DEP":77,
    "NOM_DEP":"Seine-et-Marne"
    }
  },
  {
    "type": "Feature",
    "geometry": {
       "type": "Point",
       "coordinates":  [ 1.721,48.994 ]
    },
    "properties": {
    "FIELD1":161,
    "Nom_Gare":"Mantes-la-Jolie",
    "INSEE_REG":11,
    "NOM_REG":"?le-de-France",
    "INSEE_DEP":78,
    "NOM_DEP":"Yvelines"
    }
  },
  {
    "type": "Feature",
    "geometry": {
       "type": "Point",
       "coordinates":  [ 2.136,48.797 ]
    },
    "properties": {
    "FIELD1":162,
    "Nom_Gare":"Versailles-Chantiers",
    "INSEE_REG":11,
    "NOM_REG":"?le-de-France",
    "INSEE_DEP":78,
    "NOM_DEP":"Yvelines"
    }
  },
  {
    "type": "Feature",
    "geometry": {
       "type": "Point",
       "coordinates":  [ -0.458,46.319 ]
    },
    "properties": {
    "FIELD1":163,
    "Nom_Gare":"Niort",
    "INSEE_REG":75,
    "NOM_REG":"Nouvelle-Aquitaine",
    "INSEE_DEP":79,
    "NOM_DEP":"Deux-S?vres"
    }
  },
  {
    "type": "Feature",
    "geometry": {
       "type": "Point",
       "coordinates":  [ -0.205,46.409 ]
    },
    "properties": {
    "FIELD1":164,
    "Nom_Gare":"Saint-Maixent (Deux-S?vres)",
    "INSEE_REG":75,
    "NOM_REG":"Nouvelle-Aquitaine",
    "INSEE_DEP":79,
    "NOM_DEP":"Deux-S?vres"
    }
  },
  {
    "type": "Feature",
    "geometry": {
       "type": "Point",
       "coordinates":  [ 2.289,49.9 ]
    },
    "properties": {
    "FIELD1":165,
    "Nom_Gare":"Amiens",
    "INSEE_REG":32,
    "NOM_REG":"Hauts-de-France",
    "INSEE_DEP":80,
    "NOM_DEP":"Somme"
    }
  },
  {
    "type": "Feature",
    "geometry": {
       "type": "Point",
       "coordinates":  [ 6.483,43.504 ]
    },
    "properties": {
    "FIELD1":166,
    "Nom_Gare":"Les Arcs - Draguignan",
    "INSEE_REG":93,
    "NOM_REG":"Provence-Alpes-C?te d'Azur",
    "INSEE_DEP":83,
    "NOM_DEP":"Var"
    }
  },
  {
    "type": "Feature",
    "geometry": {
       "type": "Point",
       "coordinates":  [ 6.123,43.09 ]
    },
    "properties": {
    "FIELD1":167,
    "Nom_Gare":"Hy?res",
    "INSEE_REG":93,
    "NOM_REG":"Provence-Alpes-C?te d'Azur",
    "INSEE_DEP":83,
    "NOM_DEP":"Var"
    }
  },
  {
    "type": "Feature",
    "geometry": {
       "type": "Point",
       "coordinates":  [ 6.776,43.441 ]
    },
    "properties": {
    "FIELD1":168,
    "Nom_Gare":"Saint-Rapha?l-Valescure",
    "INSEE_REG":93,
    "NOM_REG":"Provence-Alpes-C?te d'Azur",
    "INSEE_DEP":83,
    "NOM_DEP":"Var"
    }
  },
  {
    "type": "Feature",
    "geometry": {
       "type": "Point",
       "coordinates":  [ 5.964,43.133 ]
    },
    "properties": {
    "FIELD1":169,
    "Nom_Gare":"Toulon",
    "INSEE_REG":93,
    "NOM_REG":"Provence-Alpes-C?te d'Azur",
    "INSEE_DEP":83,
    "NOM_DEP":"Var"
    }
  },
  {
    "type": "Feature",
    "geometry": {
       "type": "Point",
       "coordinates":  [ 5.031,44.046 ]
    },
    "properties": {
    "FIELD1":170,
    "Nom_Gare":"Avignon-Centre",
    "INSEE_REG":93,
    "NOM_REG":"Provence-Alpes-C?te d'Azur",
    "INSEE_DEP":84,
    "NOM_DEP":"Vaucluse"
    }
  },
  {
    "type": "Feature",
    "geometry": {
       "type": "Point",
       "coordinates":  [ 4.812,44.14 ]
    },
    "properties": {
    "FIELD1":171,
    "Nom_Gare":"Orange",
    "INSEE_REG":93,
    "NOM_REG":"Provence-Alpes-C?te d'Azur",
    "INSEE_DEP":84,
    "NOM_DEP":"Vaucluse"
    }
  },
  {
    "type": "Feature",
    "geometry": {
       "type": "Point",
       "coordinates":  [ -1.432,46.67 ]
    },
    "properties": {
    "FIELD1":172,
    "Nom_Gare":"La Roche-sur-Yon",
    "INSEE_REG":52,
    "NOM_REG":"Pays de la Loire",
    "INSEE_DEP":85,
    "NOM_DEP":"Vend?e"
    }
  },
  {
    "type": "Feature",
    "geometry": {
       "type": "Point",
       "coordinates":  [ -1.758,46.479 ]
    },
    "properties": {
    "FIELD1":173,
    "Nom_Gare":"Les Sables-d'Olonne",
    "INSEE_REG":52,
    "NOM_REG":"Pays de la Loire",
    "INSEE_DEP":85,
    "NOM_DEP":"Vend?e"
    }
  },
  {
    "type": "Feature",
    "geometry": {
       "type": "Point",
       "coordinates":  [ 0.525,46.796 ]
    },
    "properties": {
    "FIELD1":174,
    "Nom_Gare":"Ch?tellerault",
    "INSEE_REG":75,
    "NOM_REG":"Nouvelle-Aquitaine",
    "INSEE_DEP":86,
    "NOM_DEP":"Vienne"
    }
  },
  {
    "type": "Feature",
    "geometry": {
       "type": "Point",
       "coordinates":  [ 0.362,46.659 ]
    },
    "properties": {
    "FIELD1":175,
    "Nom_Gare":"Futuroscope",
    "INSEE_REG":75,
    "NOM_REG":"Nouvelle-Aquitaine",
    "INSEE_DEP":86,
    "NOM_DEP":"Vienne"
    }
  },
  {
    "type": "Feature",
    "geometry": {
       "type": "Point",
       "coordinates":  [ 0.335,46.579 ]
    },
    "properties": {
    "FIELD1":176,
    "Nom_Gare":"Poitiers",
    "INSEE_REG":75,
    "NOM_REG":"Nouvelle-Aquitaine",
    "INSEE_DEP":86,
    "NOM_DEP":"Vienne"
    }
  },
  {
    "type": "Feature",
    "geometry": {
       "type": "Point",
       "coordinates":  [ 6.45,48.175 ]
    },
    "properties": {
    "FIELD1":177,
    "Nom_Gare":"?pinal",
    "INSEE_REG":44,
    "NOM_REG":"Grand Est",
    "INSEE_DEP":88,
    "NOM_DEP":"Vosges"
    }
  },
  {
    "type": "Feature",
    "geometry": {
       "type": "Point",
       "coordinates":  [ 6.604,48.006 ]
    },
    "properties": {
    "FIELD1":178,
    "Nom_Gare":"Remiremont",
    "INSEE_REG":44,
    "NOM_REG":"Grand Est",
    "INSEE_DEP":88,
    "NOM_DEP":"Vosges"
    }
  },
  {
    "type": "Feature",
    "geometry": {
       "type": "Point",
       "coordinates":  [ 6.962,48.293 ]
    },
    "properties": {
    "FIELD1":179,
    "Nom_Gare":"Saint-Di?-des-Vosges",
    "INSEE_REG":44,
    "NOM_REG":"Grand Est",
    "INSEE_DEP":88,
    "NOM_DEP":"Vosges"
    }
  },
  {
    "type": "Feature",
    "geometry": {
       "type": "Point",
       "coordinates":  [ 6.134,48.157 ]
    },
    "properties": {
    "FIELD1":180,
    "Nom_Gare":"Saint-Michel - Valloire",
    "INSEE_REG":44,
    "NOM_REG":"Grand Est",
    "INSEE_DEP":88,
    "NOM_DEP":"Vosges"
    }
  },
  {
    "type": "Feature",
    "geometry": {
       "type": "Point",
       "coordinates":  [ 6.858,47.637 ]
    },
    "properties": {
    "FIELD1":181,
    "Nom_Gare":"Belfort - Montb?liard TGV",
    "INSEE_REG":27,
    "NOM_REG":"Bourgogne-Franche-Comt?",
    "INSEE_DEP":90,
    "NOM_DEP":"Territoire de Belfort"
    }
  },
  {
    "type": "Feature",
    "geometry": {
       "type": "Point",
       "coordinates":  [ 2.243,48.731 ]
    },
    "properties": {
    "FIELD1":182,
    "Nom_Gare":"Massy - Palaiseau",
    "INSEE_REG":11,
    "NOM_REG":"?le-de-France",
    "INSEE_DEP":91,
    "NOM_DEP":"Essonne"
    }
  },
  {
    "type": "Feature",
    "geometry": {
       "type": "Point",
       "coordinates":  [ 2.291,48.736 ]
    },
    "properties": {
    "FIELD1":183,
    "Nom_Gare":"Massy TGV",
    "INSEE_REG":11,
    "NOM_REG":"?le-de-France",
    "INSEE_DEP":91,
    "NOM_DEP":"Essonne"
    }
  }
]
}